[{"title":"2nd Meat Wall, 5.9-5.13","latitude":"38.13050","longitude":"-109.585","elevation":"","activities":"Trad Climbing","season":"Spring, Fall","url":"http:\/\/www.summitpost.com\/2nd-meat-wall-5-9-5-13\/672939","score":"81.18","image":"http:\/\/www.summitpost.com\/images\/small\/672936.JPG"},{"title":"3Somes","latitude":"","longitude":"","elevation":"200","activities":"Trad Climbing, Sport Climbing","season":"Spring, Fall, Winter","url":"http:\/\/www.summitpost.com\/3somes\/830308","score":"72.08","image":"http:\/\/www.summitpost.com\/styles\/layout\/no_img4.png"},{"title":"50-40 Peak","latitude":"49.19166","longitude":"-125.2824","elevation":"1536","activities":"Hiking","season":"Spring, Summer, Fall","url":"http:\/\/www.summitpost.com\/50-40-peak\/558245","score":"87.75","image":"http:\/\/www.summitpost.com\/images\/small\/558253.jpg"},{"title":"71 Mountain","latitude":"37.93780","longitude":"-107.2678","elevation":"3751","activities":"Hiking","season":"Spring, Summer, Fall, Winter","url":"http:\/\/www.summitpost.com\/71-mountain\/664303","score":"87.31","image":"http:\/\/www.summitpost.com\/images\/small\/664294.JPG"},{"title":"A'Ghlas-Bheinn","latitude":"57.25556","longitude":"-5.30434","elevation":"918","activities":"Hiking, Mountaineering, Mixed, Scrambling","season":"Spring, Summer, Fall, Winter","url":"http:\/\/www.summitpost.com\/a-ghlas-bheinn\/605535","score":"80.49","image":"http:\/\/www.summitpost.com\/images\/small\/457959.jpg"},{"title":"A Muvrella","latitude":"42.41046","longitude":"8.91161","elevation":"2143","activities":"Hiking, Scrambling","season":"Summer, Fall","url":"http:\/\/www.summitpost.com\/a-muvrella\/828979","score":"80.49","image":"http:\/\/www.summitpost.com\/images\/small\/828983.jpg"},{"title":"\"A\" Peak","latitude":"48.23842","longitude":"-115.69874","elevation":"2632","activities":"Hiking, Mountaineering, Scrambling","season":"Summer, Fall","url":"http:\/\/www.summitpost.com\/a-peak\/307353","score":"87.18","image":"http:\/\/www.summitpost.com\/images\/small\/306404.JPG"},{"title":"A-1 Peak","latitude":"40.76810","longitude":"-110.8332","elevation":"3773","activities":"","season":"","url":"http:\/\/www.summitpost.com\/a-1-peak\/153069","score":"90.29","image":"http:\/\/www.summitpost.com\/images\/small\/99364.jpg"},{"title":"A2","latitude":"52.15119","longitude":"-117.09984","elevation":"2957","activities":"Mountaineering","season":"Summer","url":"http:\/\/www.summitpost.com\/a2\/224798","score":"87.31","image":"http:\/\/www.summitpost.com\/images\/small\/224799.jpg"},{"title":"Aag \/ Arik volcano","latitude":"53.31000","longitude":"158.60001","elevation":"2310","activities":"","season":"","url":"http:\/\/www.summitpost.com\/aag-arik-volcano\/153886","score":"83.78","image":"http:\/\/www.summitpost.com\/images\/small\/98132.jpg"},{"title":"AB Mountain","latitude":"59.52889","longitude":"-135.28333","elevation":"1540","activities":"Hiking","season":"Spring, Summer, Fall, Winter","url":"http:\/\/www.summitpost.com\/ab-mountain\/296320","score":"74.92","image":"http:\/\/www.summitpost.com\/images\/small\/298432.JPG"},{"title":"Abajo Peak","latitude":"37.83900","longitude":"-109.462","elevation":"3463","activities":"Hiking, Mountaineering, Skiing","season":"Summer, Fall","url":"http:\/\/www.summitpost.com\/abajo-peak\/153601","score":"87.3","image":"http:\/\/www.summitpost.com\/images\/small\/86784.jpg"},{"title":"Abak","latitude":"35.98130","longitude":"51.51570","elevation":"3488","activities":"","season":"","url":"http:\/\/www.summitpost.com\/abak\/154822","score":"88.19","image":"http:\/\/www.summitpost.com\/images\/small\/130924.jpg"},{"title":"Mount Abbot - Petit Griffon","latitude":"37.38610","longitude":"-118.7833","elevation":"4180","activities":"Hiking, Mountaineering, Trad Climbing, Scrambling, Skiing","season":"","url":"http:\/\/www.summitpost.com\/mount-abbot-petit-griffon\/150485","score":"92.85","image":"http:\/\/www.summitpost.com\/images\/small\/54296.jpg"},{"title":"Abdal Musa","latitude":"40.40850","longitude":"39.06674","elevation":"3331","activities":"Hiking, Mountaineering, Scrambling","season":"Spring, Summer, Fall, Winter","url":"http:\/\/www.summitpost.com\/abdal-musa\/533144","score":"87.76","image":"http:\/\/www.summitpost.com\/images\/small\/533180.jpg"},{"title":"Abel Peak (Peak 11516)","latitude":"43.78650","longitude":"-114.1368","elevation":"3510","activities":"Hiking","season":"Summer","url":"http:\/\/www.summitpost.com\/abel-peak-peak-11516\/745758","score":"74.92","image":"http:\/\/www.summitpost.com\/images\/small\/746084.JPG"},{"title":"\u00c4beni Flue","latitude":"46.50855","longitude":"7.95170","elevation":"3962","activities":"Mountaineering","season":"","url":"http:\/\/www.summitpost.com\/beni-flue\/150648","score":"78.74","image":"http:\/\/www.summitpost.com\/images\/small\/60126.jpg"},{"title":"Abercrombie Mountain","latitude":"48.92830","longitude":"-117.4589","elevation":"2227","activities":"Hiking","season":"","url":"http:\/\/www.summitpost.com\/abercrombie-mountain\/152166","score":"92.59","image":"http:\/\/www.summitpost.com\/images\/small\/36084.jpg"},{"title":"Mount Aberdeen","latitude":"51.37889","longitude":"-116.24972","elevation":"3151","activities":"Mountaineering","season":"Summer","url":"http:\/\/www.summitpost.com\/mount-aberdeen\/312840","score":"89.01","image":"http:\/\/www.summitpost.com\/images\/small\/312830.jpg"},{"title":"Abernathy Peak","latitude":"48.48000","longitude":"-120.517","elevation":"2536","activities":"","season":"","url":"http:\/\/www.summitpost.com\/abernathy-peak\/152230","score":"86.37","image":"http:\/\/www.summitpost.com\/images\/small\/38380.jpg"},{"title":"Abert Rim","latitude":"42.38838","longitude":"-120.23446","elevation":"2301","activities":"Hiking","season":"","url":"http:\/\/www.summitpost.com\/abert-rim\/345187","score":"85.36","image":"http:\/\/www.summitpost.com\/images\/small\/345188.JPG"},{"title":"Abiel Peak","latitude":"47.35207","longitude":"-121.46933","elevation":"1635","activities":"Hiking, Mountaineering","season":"Spring, Summer, Fall, Winter","url":"http:\/\/www.summitpost.com\/abiel-peak\/567364","score":"81.84","image":"http:\/\/www.summitpost.com\/images\/small\/567334.JPG"},{"title":"Mount Abraham ME","latitude":"44.97220","longitude":"-70.3264","elevation":"1234","activities":"","season":"","url":"http:\/\/www.summitpost.com\/mount-abraham-me\/154553","score":"83.27","image":"http:\/\/www.summitpost.com\/images\/small\/479380.JPG"},{"title":"Mount Abraham, VT","latitude":"44.12040","longitude":"-72.9363","elevation":"1221","activities":"","season":"","url":"http:\/\/www.summitpost.com\/mount-abraham-vt\/154524","score":"84.82","image":"http:\/\/www.summitpost.com\/images\/small\/121023.jpg"},{"title":"Volc\u00e1n Acatenango","latitude":"14.50143","longitude":"-90.87531","elevation":"3975","activities":"","season":"Summer","url":"http:\/\/www.summitpost.com\/volc-n-acatenango\/471008","score":"90.48","image":"http:\/\/www.summitpost.com\/images\/small\/401822.jpg"},{"title":"Punta di l'Acellu","latitude":"41.80094","longitude":"9.21487","elevation":"1588","activities":"Trad Climbing, Sport Climbing","season":"Spring, Summer, Fall","url":"http:\/\/www.summitpost.com\/punta-di-l-acellu\/727054","score":"79.78","image":"http:\/\/www.summitpost.com\/images\/small\/727056.jpg"},{"title":"Achar de Alano","latitude":"42.84123","longitude":"-0.78861","elevation":"2099","activities":"Hiking, Mountaineering, Trad Climbing, Big Wall, Scrambling, Skiing","season":"Spring, Summer, Fall, Winter","url":"http:\/\/www.summitpost.com\/achar-de-alano\/504924","score":"76.66","image":"http:\/\/www.summitpost.com\/images\/small\/504897.JPG"},{"title":"Acherito","latitude":"42.89720","longitude":"-0.7422","elevation":"2362","activities":"Hiking, Mountaineering","season":"Spring, Summer, Fall, Winter","url":"http:\/\/www.summitpost.com\/acherito\/152324","score":"84.27","image":"http:\/\/www.summitpost.com\/images\/small\/41902.jpg"},{"title":"Mount Achonee","latitude":"40.07250","longitude":"-105.6784","elevation":"3855","activities":"","season":"","url":"http:\/\/www.summitpost.com\/mount-achonee\/151868","score":"86.85","image":"http:\/\/www.summitpost.com\/images\/small\/27900.JPG"},{"title":"Acker Rock","latitude":"43.05300","longitude":"-122.644","elevation":"1253","activities":"","season":"","url":"http:\/\/www.summitpost.com\/acker-rock\/153184","score":"90.13","image":"http:\/\/www.summitpost.com\/images\/small\/72836.JPG"},{"title":"Ackerlspitze","latitude":"47.55907","longitude":"12.34756","elevation":"2329","activities":"Hiking, Mountaineering, Trad Climbing, Sport Climbing, Mixed, Scrambling","season":"Summer, Fall","url":"http:\/\/www.summitpost.com\/ackerlspitze\/767376","score":"86.85","image":"http:\/\/www.summitpost.com\/images\/small\/767351.JPG"},{"title":"Aconcagua","latitude":"-32.65","longitude":"-70","elevation":"6962","activities":"","season":"","url":"http:\/\/www.summitpost.com\/aconcagua\/150197","score":"100","image":"http:\/\/www.summitpost.com\/images\/small\/146685.jpg"},{"title":"Cerro Acotango","latitude":"","longitude":"","elevation":"6056","activities":"Mountaineering","season":"Summer","url":"http:\/\/www.summitpost.com\/cerro-acotango\/448369","score":"76.66","image":"http:\/\/www.summitpost.com\/images\/small\/448344.JPG"},{"title":"Acropole des Draveurs","latitude":"49.75000","longitude":"-70.55","elevation":"1040","activities":"","season":"","url":"http:\/\/www.summitpost.com\/acropole-des-draveurs\/152233","score":"86.85","image":"http:\/\/www.summitpost.com\/images\/small\/38434.jpg"},{"title":"Adam Peak (NV)","latitude":"41.16060","longitude":"-117.3056","elevation":"2645","activities":"Hiking","season":"Spring, Summer, Fall","url":"http:\/\/www.summitpost.com\/adam-peak-nv\/757220","score":"88.61","image":"http:\/\/www.summitpost.com\/images\/small\/757221.jpg"},{"title":"Adams Mountain","latitude":"48.50839","longitude":"-114.68728","elevation":"1640","activities":"Hiking","season":"Spring, Summer, Fall","url":"http:\/\/www.summitpost.com\/adams-mountain\/622771","score":"84.27","image":"http:\/\/www.summitpost.com\/images\/small\/622762.JPG"},{"title":"Adams Peak","latitude":"39.91060","longitude":"-120.1003","elevation":"2498","activities":"Hiking","season":"Summer","url":"http:\/\/www.summitpost.com\/adams-peak\/230004","score":"82.48","image":"http:\/\/www.summitpost.com\/images\/small\/230022.jpg"},{"title":"Adams Peak","latitude":"32.03390","longitude":"-110.1157","elevation":"1782","activities":"Hiking","season":"Spring, Fall, Winter","url":"http:\/\/www.summitpost.com\/adams-peak\/706941","score":"82.48","image":"http:\/\/www.summitpost.com\/images\/small\/706551.JPG"},{"title":"Mount Adams","latitude":"44.08700","longitude":"-74.026","elevation":"1073","activities":"","season":"","url":"http:\/\/www.summitpost.com\/mount-adams\/152598","score":"80.49","image":"http:\/\/www.summitpost.com\/images\/small\/53155.JPG"},{"title":"Adams, Mount","latitude":"38.00750","longitude":"-105.6042","elevation":"4249","activities":"","season":"","url":"http:\/\/www.summitpost.com\/adams-mount\/150608","score":"86.37","image":"http:\/\/www.summitpost.com\/images\/small\/43479.jpg"},{"title":"Mount Adams","latitude":"44.32000","longitude":"-71.291","elevation":"1760","activities":"","season":"","url":"http:\/\/www.summitpost.com\/mount-adams\/150922","score":"93.5","image":"http:\/\/www.summitpost.com\/images\/small\/116136.JPG"},{"title":"Mount Adams","latitude":"46.20280","longitude":"-121.4894","elevation":"3742","activities":"","season":"","url":"http:\/\/www.summitpost.com\/mount-adams\/150198","score":"99.76","image":"http:\/\/www.summitpost.com\/images\/small\/80003.jpg"},{"title":"Adder Mountain","latitude":"49.24875","longitude":"-125.31753","elevation":"1507","activities":"Hiking, Mountaineering, Skiing","season":"Spring, Summer, Fall","url":"http:\/\/www.summitpost.com\/adder-mountain\/297537","score":"84.27","image":"http:\/\/www.summitpost.com\/images\/small\/297543.JPG"},{"title":"Adelfoi","latitude":"34.95501","longitude":"32.99456","elevation":"1612","activities":"","season":"","url":"http:\/\/www.summitpost.com\/adelfoi\/654142","score":"80.49","image":"http:\/\/www.summitpost.com\/images\/small\/654158.jpg"},{"title":"Adelsfelsen","latitude":"49.07913","longitude":"7.75106","elevation":"285","activities":"Sport Climbing, Scrambling","season":"Spring, Summer, Fall","url":"http:\/\/www.summitpost.com\/adelsfelsen\/649305","score":"79.52","image":"http:\/\/www.summitpost.com\/images\/small\/649321.jpg"},{"title":"Adi","latitude":"43.02875","longitude":"-1.47217","elevation":"1458","activities":"Hiking, Mountaineering","season":"Spring, Summer, Fall, Winter","url":"http:\/\/www.summitpost.com\/adi\/152411","score":"83.69","image":"http:\/\/www.summitpost.com\/images\/small\/45215.jpg"},{"title":"Adobe Mesa","latitude":"38.62910","longitude":"-109.3173","elevation":"2150","activities":"","season":"","url":"http:\/\/www.summitpost.com\/adobe-mesa\/153315","score":"85.36","image":"http:\/\/www.summitpost.com\/images\/small\/50221.jpg"},{"title":"Adobe Peak","latitude":"38.20850","longitude":"-105.1921","elevation":"3105","activities":"Hiking","season":"Spring, Summer, Fall, Winter","url":"http:\/\/www.summitpost.com\/adobe-peak\/623898","score":"85.87","image":"http:\/\/www.summitpost.com\/images\/small\/623890.JPG"},{"title":"Adobe Range HP","latitude":"41.11363","longitude":"-115.70837","elevation":"2480","activities":"","season":"","url":"http:\/\/www.summitpost.com\/adobe-range-hp\/536303","score":"85.36","image":"http:\/\/www.summitpost.com\/images\/small\/536275.jpg"},{"title":"Adolfo Calle","latitude":"-32.9355","longitude":"-69.41162","elevation":"4242","activities":"Hiking, Mountaineering","season":"","url":"http:\/\/www.summitpost.com\/adolfo-calle\/155138","score":"84.82","image":"http:\/\/www.summitpost.com\/images\/small\/808561.jpg"},{"title":"Adventure Punks Wall, 5.10a-5.11d","latitude":"36.11579","longitude":"-115.50536","elevation":"","activities":"Trad Climbing","season":"Spring, Summer, Fall, Winter","url":"http:\/\/www.summitpost.com\/adventure-punks-wall-5-10a-5-11d\/724163","score":"79.04","image":"http:\/\/www.summitpost.com\/images\/small\/720770.JPG"},{"title":"Mount Aeneas","latitude":"50.42671","longitude":"-115.78386","elevation":"2675","activities":"Hiking","season":"Spring, Summer, Fall","url":"http:\/\/www.summitpost.com\/mount-aeneas\/806242","score":"81.84","image":"http:\/\/www.summitpost.com\/images\/small\/803820.JPG"},{"title":"Afella 4043m","latitude":"31.05499","longitude":"-7.95135","elevation":"","activities":"Mountaineering","season":"Winter","url":"http:\/\/www.summitpost.com\/afella-4043m\/783359","score":"70.46","image":"http:\/\/www.summitpost.com\/images\/small\/782914.JPG"},{"title":"Aftershock Wall, 5.10a-5.11b","latitude":"37.19330","longitude":"-113.6425","elevation":"","activities":"Trad Climbing, Sport Climbing","season":"Spring, Summer, Fall, Winter","url":"http:\/\/www.summitpost.com\/aftershock-wall-5-10a-5-11b\/487002","score":"81.18","image":"http:\/\/www.summitpost.com\/images\/small\/579343.JPG"},{"title":"Mount Agamenticus","latitude":"43.22310","longitude":"-70.692","elevation":"211","activities":"","season":"","url":"http:\/\/www.summitpost.com\/mount-agamenticus\/376997","score":"74.92","image":"http:\/\/www.summitpost.com\/images\/small\/377095.jpg"},{"title":"Mount Agassiz (Desolation)","latitude":"38.85770","longitude":"-120.1692","elevation":"3038","activities":"","season":"","url":"http:\/\/www.summitpost.com\/mount-agassiz-desolation\/151128","score":"83.1","image":"http:\/\/www.summitpost.com\/images\/small\/9701.jpg"},{"title":"Agassiz Peak","latitude":"35.32580","longitude":"-111.6772","elevation":"3766","activities":"","season":"","url":"http:\/\/www.summitpost.com\/agassiz-peak\/150289","score":"91.04","image":"http:\/\/www.summitpost.com\/images\/small\/581324.jpg"},{"title":"Mount Agassiz","latitude":"37.11186","longitude":"-118.53081","elevation":"4235","activities":"","season":"","url":"http:\/\/www.summitpost.com\/mount-agassiz\/150921","score":"94.94","image":"http:\/\/www.summitpost.com\/images\/small\/839686.JPG"},{"title":"Mount Agassiz","latitude":"40.71110","longitude":"-110.8228","elevation":"3788","activities":"","season":"","url":"http:\/\/www.summitpost.com\/mount-agassiz\/152000","score":"84.82","image":"http:\/\/www.summitpost.com\/images\/small\/83762.jpg"},{"title":"Agathla Tower","latitude":"","longitude":"","elevation":"","activities":"Trad Climbing, Sport Climbing, Toprope","season":"","url":"http:\/\/www.summitpost.com\/agathla-tower\/839035","score":"75.37","image":"http:\/\/www.summitpost.com\/images\/small\/839677.JPG"},{"title":"Ararat","latitude":"39.46747","longitude":"44.41017","elevation":"5136","activities":"Mountaineering","season":"Summer","url":"http:\/\/www.summitpost.com\/ararat\/339572","score":"93.84","image":"http:\/\/www.summitpost.com\/images\/small\/335196.jpg"},{"title":"Agua Caliente Hill","latitude":"32.29540","longitude":"-110.6659","elevation":"1636","activities":"","season":"Spring, Fall, Winter","url":"http:\/\/www.summitpost.com\/agua-caliente-hill\/784065","score":"82.48","image":"http:\/\/www.summitpost.com\/images\/small\/784068.JPG"},{"title":"Agua Tibia Mountain","latitude":"33.40975","longitude":"-116.98197","elevation":"1365","activities":"Hiking, Mountaineering, Bouldering, Scrambling","season":"Spring, Fall, Winter","url":"http:\/\/www.summitpost.com\/agua-tibia-mountain\/486433","score":"78.27","image":"http:\/\/www.summitpost.com\/images\/small\/486430.jpg"},{"title":"Volcan de Agua","latitude":"14.46500","longitude":"-90.743","elevation":"3760","activities":"Mountaineering","season":"Spring","url":"http:\/\/www.summitpost.com\/volcan-de-agua\/401711","score":"74.72","image":"http:\/\/www.summitpost.com\/images\/small\/402585.jpg"},{"title":"Ag\u00fcerri","latitude":"42.79870","longitude":"-0.6716","elevation":"2449","activities":"Mountaineering, Scrambling","season":"Spring, Summer, Fall","url":"http:\/\/www.summitpost.com\/ag-erri\/155200","score":"82.96","image":"http:\/\/www.summitpost.com\/images\/small\/266871.JPG"},{"title":"Aguglia di Goloritz\u00e9","latitude":"40.10578","longitude":"9.68904","elevation":"143","activities":"Trad Climbing, Sport Climbing","season":"Spring, Summer, Fall, Winter","url":"http:\/\/www.summitpost.com\/aguglia-di-goloritz\/837266","score":"87.66","image":"http:\/\/www.summitpost.com\/images\/small\/837284.jpg"},{"title":"Aguja Poincenot (Patagonia)","latitude":"-49.27959","longitude":"-73.04016","elevation":"3002","activities":"Mountaineering, Trad Climbing, Big Wall","season":"Spring, Summer, Fall, Winter","url":"http:\/\/www.summitpost.com\/aguja-poincenot-patagonia\/348145","score":"95.44","image":"http:\/\/www.summitpost.com\/images\/small\/348045.JPG"},{"title":"Aguja de Alba","latitude":"42.65492","longitude":"0.61841","elevation":"3054","activities":"Mountaineering, Scrambling","season":"Spring, Summer, Fall","url":"http:\/\/www.summitpost.com\/aguja-de-alba\/647636","score":"75.81","image":"http:\/\/www.summitpost.com\/images\/small\/647637.JPG"},{"title":"Agujas St-Exupery, Raphael & de la S (Patagonia)","latitude":"-49.28848","longitude":"-73.03825","elevation":"2558","activities":"Mountaineering, Trad Climbing","season":"Spring, Summer, Fall, Winter","url":"http:\/\/www.summitpost.com\/agujas-st-exupery-raphael-de-la-s-patagonia\/349858","score":"94.24","image":"http:\/\/www.summitpost.com\/images\/small\/349819.JPG"},{"title":"Agulha do Diabo","latitude":"-22.4624","longitude":"-43.0242","elevation":"2050","activities":"Hiking, Mountaineering, Trad Climbing, Sport Climbing, Big Wall","season":"Spring, Summer, Fall, Winter","url":"http:\/\/www.summitpost.com\/agulha-do-diabo\/154902","score":"74.92","image":"http:\/\/www.summitpost.com\/images\/small\/206868.jpg"},{"title":"Agulhas Negras","latitude":"-22.3796","longitude":"-44.6618","elevation":"2791","activities":"","season":"","url":"http:\/\/www.summitpost.com\/agulhas-negras\/153560","score":"76.66","image":"http:\/\/www.summitpost.com\/images\/small\/263217.bmp"},{"title":"Agulhinha da G\u00e1vea","latitude":"-22.98519","longitude":"-43.27727","elevation":"610","activities":"Hiking, Mountaineering, Trad Climbing, Sport Climbing, Toprope, Bouldering, Ice Climbing, Big Wall, Mixed","season":"Spring, Summer, Fall, Winter","url":"http:\/\/www.summitpost.com\/agulhinha-da-g-vea\/183690","score":"72.08","image":"http:\/\/www.summitpost.com\/images\/small\/183691.jpeg"},{"title":"Agung","latitude":"-8.31809","longitude":"115.56939","elevation":"3142","activities":"Hiking, Mountaineering","season":"","url":"http:\/\/www.summitpost.com\/agung\/152336","score":"85.87","image":"http:\/\/www.summitpost.com\/images\/small\/43426.jpg"},{"title":"Ahern Peak","latitude":"48.83066","longitude":"-113.78248","elevation":"2667","activities":"Hiking","season":"Summer","url":"http:\/\/www.summitpost.com\/ahern-peak\/420179","score":"84.82","image":"http:\/\/www.summitpost.com\/images\/small\/420149.JPG"},{"title":"Ahornspitze","latitude":"47.12715","longitude":"11.92429","elevation":"2973","activities":"Skiing","season":"Winter","url":"http:\/\/www.summitpost.com\/ahornspitze\/272734","score":"79.07","image":"http:\/\/www.summitpost.com\/images\/small\/272722.JPG"},{"title":"Cerro Ahuaca","latitude":"-4.30413","longitude":"-79.59475","elevation":"2470","activities":"Hiking, Trad Climbing, Sport Climbing, Toprope, Bouldering","season":"Spring, Summer, Fall, Winter","url":"http:\/\/www.summitpost.com\/cerro-ahuaca\/828292","score":"77.48","image":"http:\/\/www.summitpost.com\/images\/small\/828276.JPG"},{"title":"Aid Box","latitude":"38.99070","longitude":"-77.2485","elevation":"44","activities":"Trad Climbing, Toprope","season":"Spring, Summer, Fall, Winter","url":"http:\/\/www.summitpost.com\/aid-box\/291513","score":"80.49","image":"http:\/\/www.summitpost.com\/images\/small\/581872.JPG"},{"title":"Hohe Aifner Spitze","latitude":"47.10434","longitude":"10.73167","elevation":"2779","activities":"Hiking","season":"Spring, Summer, Fall","url":"http:\/\/www.summitpost.com\/hohe-aifner-spitze\/671546","score":"79.04","image":"http:\/\/www.summitpost.com\/images\/small\/671550.jpg"},{"title":"Aiguille Blanche de Peuterey","latitude":"45.82260","longitude":"6.88420","elevation":"4112","activities":"","season":"","url":"http:\/\/www.summitpost.com\/aiguille-blanche-de-peuterey\/151151","score":"90.78","image":"http:\/\/www.summitpost.com\/images\/small\/10144.JPG"},{"title":"Aiguille Croux","latitude":"45.80570","longitude":"6.88740","elevation":"3251","activities":"","season":"","url":"http:\/\/www.summitpost.com\/aiguille-croux\/152380","score":"85.87","image":"http:\/\/www.summitpost.com\/images\/small\/43750.jpg"},{"title":"Aiguille d'Argenti\u00e8re","latitude":"45.96060","longitude":"7.01790","elevation":"3902","activities":"","season":"","url":"http:\/\/www.summitpost.com\/aiguille-d-argenti-re\/150684","score":"96.84","image":"http:\/\/www.summitpost.com\/images\/small\/597767.jpg"},{"title":"Aiguille d'Entr\u00e8ves","latitude":"45.84560","longitude":"6.91690","elevation":"3604","activities":"","season":"","url":"http:\/\/www.summitpost.com\/aiguille-d-entr-egrave-ves\/154484","score":"91.45","image":"http:\/\/www.summitpost.com\/images\/small\/119525.JPG"},{"title":"Aiguille de Blaiti\u00e8re","latitude":"45.89930","longitude":"6.91360","elevation":"3522","activities":"","season":"","url":"http:\/\/www.summitpost.com\/aiguille-de-blaiti-re\/151022","score":"87.7","image":"http:\/\/www.summitpost.com\/images\/small\/112908.JPG"},{"title":"Aiguille de Chambeyron","latitude":"44.54780","longitude":"6.85800","elevation":"3411","activities":"","season":"","url":"http:\/\/www.summitpost.com\/aiguille-de-chambeyron\/154541","score":"78.27","image":"http:\/\/www.summitpost.com\/images\/small\/121768.jpg"},{"title":"Aiguille de la Gandoli\u00e8re","latitude":"44.97170","longitude":"6.27750","elevation":"3324","activities":"","season":"","url":"http:\/\/www.summitpost.com\/aiguille-de-la-gandoli-re\/155109","score":"77.48","image":"http:\/\/www.summitpost.com\/images\/small\/139845.jpg"},{"title":"Aiguille de la Gli\u00e8re","latitude":"","longitude":"","elevation":"2852","activities":"","season":"","url":"http:\/\/www.summitpost.com\/aiguille-de-la-gli-re\/152950","score":"82.48","image":"http:\/\/www.summitpost.com\/images\/small\/65175.jpg"},{"title":"Aiguille de la Lex Blanche","latitude":"45.78698","longitude":"6.80380","elevation":"3697","activities":"Mountaineering","season":"Summer","url":"http:\/\/www.summitpost.com\/aiguille-de-la-lex-blanche\/443357","score":"74.92","image":"http:\/\/www.summitpost.com\/images\/small\/443358.jpg"},{"title":"Aiguille de la Tsa","latitude":"46.02155","longitude":"7.52250","elevation":"3668","activities":"Mountaineering","season":"Summer","url":"http:\/\/www.summitpost.com\/aiguille-de-la-tsa\/353794","score":"88.6","image":"http:\/\/www.summitpost.com\/images\/small\/256884.jpg"},{"title":"\u25b2Aiguille de Leisasse or Lesache","latitude":"45.85911","longitude":"7.11845","elevation":"3014","activities":"Mountaineering","season":"","url":"http:\/\/www.summitpost.com\/font-color-blue-font-aiguille-de-leisasse-or-lesache\/425554","score":"84.27","image":"http:\/\/www.summitpost.com\/images\/small\/425559.jpg"},{"title":"Aiguille de Leschaux","latitude":"45.88720","longitude":"7.00670","elevation":"3759","activities":"Mountaineering, Trad Climbing","season":"Summer","url":"http:\/\/www.summitpost.com\/aiguille-de-leschaux\/153734","score":"86.85","image":"http:\/\/www.summitpost.com\/images\/small\/319123.JPG"},{"title":"Aiguille de Rochefort","latitude":"45.86380","longitude":"6.96090","elevation":"4001","activities":"","season":"","url":"http:\/\/www.summitpost.com\/aiguille-de-rochefort\/150208","score":"98.47","image":"http:\/\/www.summitpost.com\/images\/small\/596353.JPG"},{"title":"Aiguille de Tal\u00e8fre","latitude":"45.90004","longitude":"7.00481","elevation":"3730","activities":"Mountaineering","season":"","url":"http:\/\/www.summitpost.com\/aiguille-de-tal-fre\/728387","score":"81.18","image":"http:\/\/www.summitpost.com\/images\/small\/448763.jpg"},{"title":"Aiguille de Toula","latitude":"45.84990","longitude":"6.92340","elevation":"3538","activities":"","season":"","url":"http:\/\/www.summitpost.com\/aiguille-de-toula\/154519","score":"91.13","image":"http:\/\/www.summitpost.com\/images\/small\/120666.jpg"},{"title":"Aiguille de Triolet","latitude":"45.91750","longitude":"7.02500","elevation":"3870","activities":"Mountaineering","season":"","url":"http:\/\/www.summitpost.com\/aiguille-de-triolet\/150746","score":"97.08","image":"http:\/\/www.summitpost.com\/images\/small\/633735.jpg"},{"title":"Aiguille Des Glaciers","latitude":"45.77880","longitude":"6.80170","elevation":"3817","activities":"","season":"","url":"http:\/\/www.summitpost.com\/aiguille-des-glaciers\/152326","score":"85.87","image":"http:\/\/www.summitpost.com\/images\/small\/41915.jpg"},{"title":"Aiguille des Grands Charmoz","latitude":"45.90560","longitude":"6.91830","elevation":"3445","activities":"","season":"","url":"http:\/\/www.summitpost.com\/aiguille-des-grands-charmoz\/150998","score":"87.31","image":"http:\/\/www.summitpost.com\/images\/small\/671259.JPG"},{"title":"Aiguille du Dru (or Les Drus)","latitude":"45.93270","longitude":"6.95570","elevation":"3754","activities":"","season":"","url":"http:\/\/www.summitpost.com\/aiguille-du-dru-or-les-drus\/150757","score":"94.44","image":"http:\/\/www.summitpost.com\/images\/small\/11549.jpg"},{"title":"Aiguille du Fou","latitude":"","longitude":"","elevation":"3501","activities":"","season":"","url":"http:\/\/www.summitpost.com\/aiguille-du-fou\/150997","score":"81.08","image":"http:\/\/www.summitpost.com\/images\/small\/42529.JPG"},{"title":"Aiguille du Go\u00fbter","latitude":"45.85120","longitude":"6.83060","elevation":"3863","activities":"","season":"","url":"http:\/\/www.summitpost.com\/aiguille-du-go-ter\/154225","score":"89.01","image":"http:\/\/www.summitpost.com\/images\/small\/221457.JPG"},{"title":"Aiguille du Gr\u00e9pon","latitude":"","longitude":"","elevation":"3482","activities":"","season":"","url":"http:\/\/www.summitpost.com\/aiguille-du-gr-pon\/150999","score":"77.9","image":"http:\/\/www.summitpost.com\/images\/small\/40696.JPG"},{"title":"Aiguille du Midi","latitude":"45.87890","longitude":"6.88780","elevation":"3842","activities":"","season":"","url":"http:\/\/www.summitpost.com\/aiguille-du-midi\/150216","score":"97.61","image":"http:\/\/www.summitpost.com\/images\/small\/11484.JPG"},{"title":"Aiguille du Moine","latitude":"45.91660","longitude":"6.96170","elevation":"3412","activities":"","season":"","url":"http:\/\/www.summitpost.com\/aiguille-du-moine\/151084","score":"73.26","image":"http:\/\/www.summitpost.com\/images\/small\/57981.JPG"},{"title":"Aiguille du Peigne","latitude":"","longitude":"","elevation":"3192","activities":"","season":"","url":"http:\/\/www.summitpost.com\/aiguille-du-peigne\/151023","score":"80.6","image":"http:\/\/www.summitpost.com\/images\/small\/29770.JPG"},{"title":"Aiguille du Plan","latitude":"45.89070","longitude":"6.90770","elevation":"3673","activities":"Mountaineering, Ice Climbing, Mixed","season":"","url":"http:\/\/www.summitpost.com\/aiguille-du-plan\/150810","score":"89.77","image":"http:\/\/www.summitpost.com\/images\/small\/4068.jpg"},{"title":"Aiguille du Plat de la Selle","latitude":"44.96460","longitude":"6.22200","elevation":"3596","activities":"","season":"","url":"http:\/\/www.summitpost.com\/aiguille-du-plat-de-la-selle\/154677","score":"80.8","image":"http:\/\/www.summitpost.com\/images\/small\/126407.jpg"},{"title":"Aiguille du Tour","latitude":"45.99450","longitude":"7.01020","elevation":"3544","activities":"","season":"","url":"http:\/\/www.summitpost.com\/aiguille-du-tour\/150217","score":"86.62","image":"http:\/\/www.summitpost.com\/images\/small\/5520.jpg"},{"title":"Aiguille L'Index","latitude":"","longitude":"","elevation":"2595","activities":"","season":"","url":"http:\/\/www.summitpost.com\/aiguille-l-index\/151095","score":"84.27","image":"http:\/\/www.summitpost.com\/images\/small\/9094.jpg"},{"title":"Aiguille Large de Mary","latitude":"44.56308","longitude":"6.87813","elevation":"2857","activities":"Hiking, Sport Climbing","season":"Summer","url":"http:\/\/www.summitpost.com\/aiguille-large-de-mary\/713487","score":"80.16","image":"http:\/\/www.summitpost.com\/images\/small\/836696.jpg"},{"title":"Aiguille Noire de Peuterey","latitude":"45.82000","longitude":"6.89430","elevation":"3773","activities":"Trad Climbing, Big Wall","season":"Summer","url":"http:\/\/www.summitpost.com\/aiguille-noire-de-peuterey\/152136","score":"91.93","image":"http:\/\/www.summitpost.com\/images\/small\/74324.jpg"},{"title":"Aiguille Orientale du Soreiller","latitude":"44.96680","longitude":"6.25714","elevation":"3382","activities":"Mountaineering, Trad Climbing, Sport Climbing","season":"Summer","url":"http:\/\/www.summitpost.com\/aiguille-orientale-du-soreiller\/229080","score":"84.82","image":"http:\/\/www.summitpost.com\/images\/small\/228221.jpg"},{"title":"Aiguille Pierre Andr\u00e9","latitude":"44.57380","longitude":"6.85270","elevation":"2853","activities":"","season":"","url":"http:\/\/www.summitpost.com\/aiguille-pierre-andr\/151046","score":"78.64","image":"http:\/\/www.summitpost.com\/images\/small\/17106.JPG"},{"title":"Aiguille Savoie","latitude":"45.90940","longitude":"7.01340","elevation":"3604","activities":"Mountaineering, Trad Climbing","season":"Summer","url":"http:\/\/www.summitpost.com\/aiguille-savoie\/153117","score":"84.82","image":"http:\/\/www.summitpost.com\/images\/small\/70714.jpg"},{"title":"Aiguille Verte","latitude":"45.93550","longitude":"6.96860","elevation":"4122","activities":"","season":"","url":"http:\/\/www.summitpost.com\/aiguille-verte\/150223","score":"98.85","image":"http:\/\/www.summitpost.com\/images\/small\/737593.jpg"},{"title":"\u25b2Aiguille Verte de Valsorey","latitude":"45.91742","longitude":"7.28943","elevation":"3489","activities":"Mountaineering","season":"","url":"http:\/\/www.summitpost.com\/font-color-blue-font-aiguille-verte-de-valsorey\/707553","score":"87.76","image":"http:\/\/www.summitpost.com\/images\/small\/707558.jpg"},{"title":"Aiguilles Crochues","latitude":"","longitude":"","elevation":"2840","activities":"","season":"","url":"http:\/\/www.summitpost.com\/aiguilles-crochues\/153089","score":"80.49","image":"http:\/\/www.summitpost.com\/images\/small\/69889.jpg"},{"title":"Aiguilles de Tr\u00e9lat\u00e9te","latitude":"45.79460","longitude":"6.80570","elevation":"3920","activities":"Mountaineering","season":"Summer","url":"http:\/\/www.summitpost.com\/aiguilles-de-tr-lat-te\/152459","score":"85.36","image":"http:\/\/www.summitpost.com\/images\/small\/47514.jpg"},{"title":"\u25b2Aiguilles des Angroniettes","latitude":"45.87200","longitude":"7.09228","elevation":"2841","activities":"Mountaineering","season":"","url":"http:\/\/www.summitpost.com\/font-color-blue-font-aiguilles-des-angroniettes\/478409","score":"86.37","image":"http:\/\/www.summitpost.com\/images\/small\/478449.jpg"},{"title":"\u25b2Aiguilles des Luisettes de Valsorey","latitude":"45.90655","longitude":"7.27990","elevation":"3226","activities":"Mountaineering","season":"","url":"http:\/\/www.summitpost.com\/font-color-blue-font-aiguilles-des-luisettes-de-valsorey\/704567","score":"85.87","image":"http:\/\/www.summitpost.com\/images\/small\/704964.jpg"},{"title":"\u25b2Aiguilles Marbr\u00e9es","latitude":"45.85160","longitude":"6.94100","elevation":"3536","activities":"Mountaineering","season":"","url":"http:\/\/www.summitpost.com\/font-color-blue-font-aiguilles-marbr-es\/538799","score":"85.36","image":"http:\/\/www.summitpost.com\/images\/small\/544801.jpg"},{"title":"Aiguilles Rouges","latitude":"","longitude":"","elevation":"2603","activities":"","season":"","url":"http:\/\/www.summitpost.com\/aiguilles-rouges\/153923","score":"75.55","image":"http:\/\/www.summitpost.com\/images\/small\/41685.jpg"},{"title":"Aiguillette d'Argentiere","latitude":"","longitude":"","elevation":"1893","activities":"","season":"","url":"http:\/\/www.summitpost.com\/aiguillette-d-argentiere\/153099","score":"80.49","image":"http:\/\/www.summitpost.com\/images\/small\/70104.jpg"},{"title":"Ailefroide","latitude":"44.88420","longitude":"6.35320","elevation":"3954","activities":"","season":"","url":"http:\/\/www.summitpost.com\/ailefroide\/150732","score":"83.69","image":"http:\/\/www.summitpost.com\/images\/small\/42023.JPG"},{"title":"Aiplspitz","latitude":"47.67318","longitude":"11.92372","elevation":"1758","activities":"Hiking","season":"Spring, Summer, Fall, Winter","url":"http:\/\/www.summitpost.com\/aiplspitz\/257087","score":"91.9","image":"http:\/\/www.summitpost.com\/images\/small\/257688.jpg"},{"title":"Mount Aire, Church Fork Peak, and Millvu","latitude":"40.72000","longitude":"-111.694","elevation":"2628","activities":"","season":"","url":"http:\/\/www.summitpost.com\/mount-aire-church-fork-peak-and-millvu\/152296","score":"81.18","image":"http:\/\/www.summitpost.com\/images\/small\/40755.jpg"},{"title":"Aires Butte","latitude":"37.23250","longitude":"-112.9077","elevation":"2017","activities":"Trad Climbing","season":"Spring, Summer, Fall","url":"http:\/\/www.summitpost.com\/aires-butte\/197117","score":"88.55","image":"http:\/\/www.summitpost.com\/images\/small\/197114.jpg"},{"title":"Airola Peak","latitude":"38.45764","longitude":"-119.81541","elevation":"3030","activities":"Hiking","season":"Spring, Summer, Fall","url":"http:\/\/www.summitpost.com\/airola-peak\/328676","score":"82.48","image":"http:\/\/www.summitpost.com\/images\/small\/328678.jpg"},{"title":"Airport Boulder","latitude":"","longitude":"","elevation":"152","activities":"Bouldering","season":"","url":"http:\/\/www.summitpost.com\/airport-boulder\/823130","score":"76.66","image":"http:\/\/www.summitpost.com\/images\/small\/823116.JPG"},{"title":"Aiseo","latitude":"33.68975","longitude":"76.26379","elevation":"6029","activities":"Mountaineering","season":"Summer","url":"http:\/\/www.summitpost.com\/aiseo\/542723","score":"79.04","image":"http:\/\/www.summitpost.com\/images\/small\/542725.jpg"},{"title":"Aitana","latitude":"38.65038","longitude":"-0.25983","elevation":"1557","activities":"Hiking","season":"Spring, Summer, Fall, Winter","url":"http:\/\/www.summitpost.com\/aitana\/677980","score":"76.66","image":"http:\/\/www.summitpost.com\/images\/small\/677983.jpg"},{"title":"Mount Aix","latitude":"46.79500","longitude":"-121.2558","elevation":"2367","activities":"","season":"","url":"http:\/\/www.summitpost.com\/mount-aix\/152717","score":"91.08","image":"http:\/\/www.summitpost.com\/images\/small\/56764.JPG"},{"title":"Aizkorri","latitude":"42.95140","longitude":"-2.3258","elevation":"1528","activities":"","season":"","url":"http:\/\/www.summitpost.com\/aizkorri\/153325","score":"80.49","image":"http:\/\/www.summitpost.com\/images\/small\/146035.jpg"},{"title":"Ajax Peak","latitude":"45.33000","longitude":"-113.73","elevation":"3057","activities":"Hiking, Bouldering, Scrambling","season":"Summer, Fall","url":"http:\/\/www.summitpost.com\/ajax-peak\/153660","score":"90.39","image":"http:\/\/www.summitpost.com\/images\/small\/88547.JPG"},{"title":"Mount Ajo","latitude":"32.03000","longitude":"-112.69","elevation":"1465","activities":"","season":"","url":"http:\/\/www.summitpost.com\/mount-ajo\/151379","score":"86.97","image":"http:\/\/www.summitpost.com\/images\/small\/256431.JPG"},{"title":"Ajusco","latitude":"19.04000","longitude":"-99.26","elevation":"3986","activities":"","season":"","url":"http:\/\/www.summitpost.com\/ajusco\/152054","score":"82.92","image":"http:\/\/www.summitpost.com\/images\/small\/84953.jpg"},{"title":"akioud","latitude":"","longitude":"","elevation":"4030","activities":"","season":"","url":"http:\/\/www.summitpost.com\/akioud\/153603","score":"77.22","image":"http:\/\/www.summitpost.com\/images\/small\/105518.jpg"},{"title":"Ahkka","latitude":"67.57677","longitude":"17.48199","elevation":"2016","activities":"Hiking, Mountaineering, Trad Climbing, Bouldering, Mixed, Scrambling, Skiing","season":"Spring, Summer","url":"http:\/\/www.summitpost.com\/ahkka\/207088","score":"86.2","image":"http:\/\/www.summitpost.com\/images\/small\/207059.jpg"},{"title":"Akrafjall","latitude":"64.34359","longitude":"-21.94527","elevation":"643","activities":"Hiking","season":"Spring, Summer, Fall, Winter","url":"http:\/\/www.summitpost.com\/akrafjall\/820167","score":"81.84","image":"http:\/\/www.summitpost.com\/images\/small\/795909.JPG"},{"title":"Al West Peak","latitude":"44.17771","longitude":"-113.80051","elevation":"3447","activities":"Hiking, Mountaineering, Mixed, Scrambling","season":"Spring, Summer, Fall, Winter","url":"http:\/\/www.summitpost.com\/al-west-peak\/253452","score":"88.19","image":"http:\/\/www.summitpost.com\/images\/small\/637485.JPG"},{"title":"Ala Izquierda","latitude":"","longitude":"","elevation":"5532","activities":"","season":"","url":"http:\/\/www.summitpost.com\/ala-izquierda\/154595","score":"81.18","image":"http:\/\/www.summitpost.com\/images\/small\/123727.jpeg"},{"title":"DXM Wall","latitude":"36.60612","longitude":"-118.13092","elevation":"1494","activities":"Trad Climbing, Sport Climbing, Toprope","season":"Spring, Summer, Fall, Winter","url":"http:\/\/www.summitpost.com\/dxm-wall\/778815","score":"85.36","image":"http:\/\/www.summitpost.com\/images\/small\/778816.JPG"},{"title":"Earthday Dome","latitude":"36.58577","longitude":"-118.10683","elevation":"1413","activities":"Trad Climbing, Sport Climbing","season":"Spring, Summer, Fall, Winter","url":"http:\/\/www.summitpost.com\/earthday-dome\/674129","score":"90.48","image":"http:\/\/www.summitpost.com\/images\/small\/674123.JPG"},{"title":"Southern Blonde","latitude":"36.58323","longitude":"-118.11543","elevation":"1437","activities":"Sport Climbing","season":"Spring, Summer, Fall, Winter","url":"http:\/\/www.summitpost.com\/southern-blonde\/758626","score":"87.31","image":"http:\/\/www.summitpost.com\/images\/small\/758704.JPG"},{"title":"Thug Wall","latitude":"36.48465","longitude":"-118.11338","elevation":"1420","activities":"Trad Climbing, Sport Climbing","season":"Spring, Summer, Fall, Winter","url":"http:\/\/www.summitpost.com\/thug-wall\/629113","score":"87.76","image":"http:\/\/www.summitpost.com\/images\/small\/629109.JPG"},{"title":"Whitney Cave","latitude":"36.58206","longitude":"-118.10406","elevation":"1448","activities":"Sport Climbing","season":"Spring, Summer, Fall, Winter","url":"http:\/\/www.summitpost.com\/whitney-cave\/613766","score":"87.76","image":"http:\/\/www.summitpost.com\/images\/small\/613760.JPG"},{"title":"Elephant Rock & Leaning Tower of Pizza","latitude":"36.60614","longitude":"-118.13055","elevation":"1451","activities":"Sport Climbing","season":"Spring, Summer, Fall, Winter","url":"http:\/\/www.summitpost.com\/elephant-rock-leaning-tower-of-pizza\/684678","score":"90.81","image":"http:\/\/www.summitpost.com\/images\/small\/684677.JPG"},{"title":"Truffle Tower","latitude":"36.60757","longitude":"-118.13369","elevation":"1469","activities":"Trad Climbing, Sport Climbing, Toprope","season":"Spring, Summer, Fall, Winter","url":"http:\/\/www.summitpost.com\/truffle-tower\/635017","score":"84.82","image":"http:\/\/www.summitpost.com\/images\/small\/635016.JPG"},{"title":"Alabama Dome","latitude":"36.58591","longitude":"-118.11437","elevation":"1420","activities":"Sport Climbing","season":"Spring, Summer, Fall, Winter","url":"http:\/\/www.summitpost.com\/alabama-dome\/609688","score":"89.01","image":"http:\/\/www.summitpost.com\/images\/small\/609687.jpg"},{"title":"Rocky Top","latitude":"36.58459","longitude":"-118.1132","elevation":"1411","activities":"Trad Climbing, Sport Climbing","season":"Spring, Summer, Fall, Winter","url":"http:\/\/www.summitpost.com\/rocky-top\/640155","score":"87.76","image":"http:\/\/www.summitpost.com\/images\/small\/640153.JPG"},{"title":"Nice Tower, 5.9-10b","latitude":"36.60595","longitude":"-118.13101","elevation":"","activities":"","season":"Spring, Summer, Fall, Winter","url":"http:\/\/www.summitpost.com\/nice-tower-5-9-10b\/777631","score":"83.1","image":"http:\/\/www.summitpost.com\/images\/small\/777638.jpg"},{"title":"Sunday Matinee Wall","latitude":"36.60492","longitude":"-118.12848","elevation":"1426","activities":"Sport Climbing, Toprope","season":"Spring, Summer, Fall, Winter","url":"http:\/\/www.summitpost.com\/sunday-matinee-wall\/719286","score":"87.76","image":"http:\/\/www.summitpost.com\/images\/small\/719288.JPG"},{"title":"Cattle Pocket","latitude":"36.60476","longitude":"-118.12771","elevation":"1423","activities":"Sport Climbing","season":"Spring, Summer, Fall, Winter","url":"http:\/\/www.summitpost.com\/cattle-pocket\/610999","score":"95.97","image":"http:\/\/www.summitpost.com\/images\/small\/610971.JPG"},{"title":"The Hideout","latitude":"36.59741","longitude":"-118.12888","elevation":"1466","activities":"Sport Climbing, Toprope","season":"Spring, Summer, Fall, Winter","url":"http:\/\/www.summitpost.com\/the-hideout\/638658","score":"87.76","image":"http:\/\/www.summitpost.com\/images\/small\/638657.JPG"},{"title":"Lost Eye to the Moon","latitude":"36.60551","longitude":"-118.12745","elevation":"1423","activities":"Sport Climbing","season":"Spring, Summer, Fall, Winter","url":"http:\/\/www.summitpost.com\/lost-eye-to-the-moon\/660425","score":"88.61","image":"http:\/\/www.summitpost.com\/images\/small\/660416.JPG"},{"title":"Nut Towers","latitude":"36.60689","longitude":"-118.1319","elevation":"1311","activities":"","season":"Spring, Summer, Fall, Winter","url":"http:\/\/www.summitpost.com\/nut-towers\/675275","score":"86.85","image":"http:\/\/www.summitpost.com\/images\/small\/675274.JPG"},{"title":"Schmaltz Rock, 5.7-10b","latitude":"36.60602","longitude":"-118.12951","elevation":"","activities":"Trad Climbing, Sport Climbing","season":"Spring, Summer, Fall, Winter","url":"http:\/\/www.summitpost.com\/schmaltz-rock-5-7-10b\/785624","score":"82.48","image":"http:\/\/www.summitpost.com\/images\/small\/785632.JPG"},{"title":"Oz","latitude":"36.61467","longitude":"-118.1068","elevation":"1480","activities":"Trad Climbing, Sport Climbing, Toprope","season":"Spring, Summer, Fall, Winter","url":"http:\/\/www.summitpost.com\/oz\/710873","score":"87.76","image":"http:\/\/www.summitpost.com\/images\/small\/710872.JPG"},{"title":"The Candy Store","latitude":"36.58257","longitude":"-118.11328","elevation":"","activities":"","season":"Spring, Summer, Fall, Winter","url":"http:\/\/www.summitpost.com\/the-candy-store\/607717","score":"84.27","image":"http:\/\/www.summitpost.com\/images\/small\/607722.JPG"},{"title":"Arizona Dome","latitude":"36.58790","longitude":"-118.11114","elevation":"1384","activities":"Sport Climbing","season":"Spring, Summer, Fall, Winter","url":"http:\/\/www.summitpost.com\/arizona-dome\/652774","score":"88.19","image":"http:\/\/www.summitpost.com\/images\/small\/652770.JPG"},{"title":"The Corridors, East End","latitude":"36.60541","longitude":"-118.12764","elevation":"1423","activities":"Trad Climbing, Sport Climbing","season":"Spring, Summer, Fall, Winter","url":"http:\/\/www.summitpost.com\/the-corridors-east-end\/624872","score":"84.27","image":"http:\/\/www.summitpost.com\/images\/small\/624828.JPG"},{"title":"Hoodgie Wall","latitude":"36.60788","longitude":"-118.13335","elevation":"1469","activities":"Sport Climbing","season":"Spring, Summer, Fall, Winter","url":"http:\/\/www.summitpost.com\/hoodgie-wall\/617457","score":"89.77","image":"http:\/\/www.summitpost.com\/images\/small\/617455.JPG"},{"title":"Peter Gabriel Cliff","latitude":"36.58523","longitude":"-118.11126","elevation":"1396","activities":"Sport Climbing, Toprope","season":"Spring, Summer, Fall, Winter","url":"http:\/\/www.summitpost.com\/peter-gabriel-cliff\/621561","score":"87.76","image":"http:\/\/www.summitpost.com\/images\/small\/621517.jpg"},{"title":"Pillar of Thoth, 5.7-11a","latitude":"36.60574","longitude":"-118.12968","elevation":"1829","activities":"Sport Climbing","season":"Fall, Winter","url":"http:\/\/www.summitpost.com\/pillar-of-thoth-5-7-11a\/821500","score":"86.37","image":"http:\/\/www.summitpost.com\/images\/small\/821488.jpg"},{"title":"Alam Kooh","latitude":"36.37536","longitude":"50.96128","elevation":"4850","activities":"Hiking, Bouldering, Ice Climbing, Big Wall, Mixed, Scrambling","season":"Summer","url":"http:\/\/www.summitpost.com\/alam-kooh\/150420","score":"95.24","image":"http:\/\/www.summitpost.com\/images\/small\/3958.jpg"},{"title":"Alam Kooh Shakhak Number 1","latitude":"36.37560","longitude":"50.96440","elevation":"4795","activities":"","season":"","url":"http:\/\/www.summitpost.com\/alam-kooh-shakhak-number-1\/152894","score":"89.01","image":"http:\/\/www.summitpost.com\/images\/small\/63189.JPG"},{"title":"Alamo Mountain","latitude":"32.03224","longitude":"-105.63784","elevation":"2033","activities":"Hiking","season":"","url":"http:\/\/www.summitpost.com\/alamo-mountain\/756037","score":"78.27","image":"http:\/\/www.summitpost.com\/images\/small\/756026.jpg"},{"title":"Alamo Hueco Highpoint","latitude":"31.44790","longitude":"-108.3644","elevation":"2088","activities":"Mountaineering","season":"Fall","url":"http:\/\/www.summitpost.com\/alamo-hueco-highpoint\/155230","score":"77.48","image":"http:\/\/www.summitpost.com\/images\/small\/144057.jpg"},{"title":"Alamo Mountain","latitude":"34.66600","longitude":"-118.959","elevation":"2245","activities":"Hiking","season":"Summer, Fall","url":"http:\/\/www.summitpost.com\/alamo-mountain\/651100","score":"79.78","image":"http:\/\/www.summitpost.com\/images\/small\/651101.jpg"},{"title":"Alamoot Castle (The Alamoot Valley)","latitude":"36.00000","longitude":"50.58330","elevation":"2163","activities":"","season":"","url":"http:\/\/www.summitpost.com\/alamoot-castle-the-alamoot-valley\/154063","score":"82.48","image":"http:\/\/www.summitpost.com\/images\/small\/105037.jpg"},{"title":"Alancic \/ Rozanski Vrh \/ Seravski Vrh","latitude":"44.72520","longitude":"14.98000","elevation":"1670","activities":"Hiking, Mountaineering, Skiing","season":"Spring, Summer, Fall, Winter","url":"http:\/\/www.summitpost.com\/alancic-rozanski-vrh-seravski-vrh\/153483","score":"89.77","image":"http:\/\/www.summitpost.com\/images\/small\/82970.jpg"},{"title":"Mount Alander","latitude":"42.08676","longitude":"-73.47073","elevation":"682","activities":"Hiking, Skiing","season":"Spring, Summer, Fall, Winter","url":"http:\/\/www.summitpost.com\/mount-alander\/179042","score":"79.44","image":"http:\/\/www.summitpost.com\/images\/small\/179050.JPG"},{"title":"Alaneh Sarband & Sebrar","latitude":"36.29638","longitude":"51.02201","elevation":"3940","activities":"Mountaineering","season":"Summer","url":"http:\/\/www.summitpost.com\/alaneh-sarband-sebrar\/454644","score":"84.27","image":"http:\/\/www.summitpost.com\/images\/small\/454688.JPG"},{"title":"Alaneh Sar","latitude":"36.30783","longitude":"50.99900","elevation":"4065","activities":"Mountaineering","season":"Summer","url":"http:\/\/www.summitpost.com\/alaneh-sar\/461819","score":"94.24","image":"http:\/\/www.summitpost.com\/images\/small\/461831.JPG"},{"title":"Alaska Mountain","latitude":"47.46326","longitude":"-121.34674","elevation":"1751","activities":"Hiking, Scrambling","season":"Summer, Fall","url":"http:\/\/www.summitpost.com\/alaska-mountain\/516504","score":"85.87","image":"http:\/\/www.summitpost.com\/images\/small\/516517.jpg"},{"title":"Alba, Pico de","latitude":"42.65561","longitude":"0.62038","elevation":"3118","activities":"Mountaineering","season":"Spring, Summer, Fall","url":"http:\/\/www.summitpost.com\/alba-pico-de\/413686","score":"87.31","image":"http:\/\/www.summitpost.com\/images\/small\/126570.JPG"},{"title":"Maje e Arapit","latitude":"42.43765","longitude":"19.75616","elevation":"2217","activities":"Hiking, Mountaineering, Trad Climbing","season":"Spring, Summer, Fall","url":"http:\/\/www.summitpost.com\/maje-e-arapit\/658619","score":"92.85","image":"http:\/\/www.summitpost.com\/images\/small\/658591.JPG"},{"title":"Albaron di Savoia","latitude":"45.33743","longitude":"7.09940","elevation":"3627","activities":"Mountaineering","season":"Summer","url":"http:\/\/www.summitpost.com\/albaron-di-savoia\/212374","score":"90.13","image":"http:\/\/www.summitpost.com\/images\/small\/212375.JPG"},{"title":"Albert Mountain","latitude":"35.05240","longitude":"-83.4775","elevation":"1609","activities":"","season":"","url":"http:\/\/www.summitpost.com\/albert-mountain\/154267","score":"83.1","image":"http:\/\/www.summitpost.com\/images\/small\/112009.jpg"},{"title":"Alberta Jam, 5.9-5.13aR","latitude":"51.32149","longitude":"-115.34082","elevation":"","activities":"Trad Climbing","season":"Summer","url":"http:\/\/www.summitpost.com\/alberta-jam-5-9-5-13ar\/731030","score":"81.84","image":"http:\/\/www.summitpost.com\/images\/small\/731025.jpg"},{"title":"Alberta, Mount","latitude":"52.30000","longitude":"-117.4666","elevation":"3622","activities":"","season":"","url":"http:\/\/www.summitpost.com\/alberta-mount\/153530","score":"92.83","image":"http:\/\/www.summitpost.com\/images\/small\/85002.jpg"},{"title":"Punta da l' Albigna","latitude":"46.33241","longitude":"9.65999","elevation":"2825","activities":"Mountaineering, Trad Climbing, Sport Climbing","season":"Spring, Summer, Fall","url":"http:\/\/www.summitpost.com\/punta-da-l-albigna\/241041","score":"79.89","image":"http:\/\/www.summitpost.com\/images\/small\/241042.JPG"},{"title":"Albrist","latitude":"46.49700","longitude":"7.48950","elevation":"2762","activities":"Hiking","season":"Summer","url":"http:\/\/www.summitpost.com\/albrist\/647495","score":"83.69","image":"http:\/\/www.summitpost.com\/images\/small\/647281."},{"title":"La Alcazaba","latitude":"37.06723","longitude":"-3.30122","elevation":"3300","activities":"Hiking, Mountaineering, Trad Climbing, Ice Climbing, Mixed, Scrambling, Skiing","season":"Spring, Summer, Fall, Winter","url":"http:\/\/www.summitpost.com\/la-alcazaba\/617441","score":"71.06","image":"http:\/\/www.summitpost.com\/styles\/layout\/no_img4.png"},{"title":"Alder Peak","latitude":"35.88470","longitude":"-121.36982","elevation":"1141","activities":"Hiking","season":"Spring, Summer, Fall, Winter","url":"http:\/\/www.summitpost.com\/alder-peak\/477547","score":"85.87","image":"http:\/\/www.summitpost.com\/images\/small\/477540.jpg"},{"title":"Mount Alderson","latitude":"49.02363","longitude":"-113.96976","elevation":"2692","activities":"Hiking","season":"Spring, Summer, Fall, Winter","url":"http:\/\/www.summitpost.com\/mount-alderson\/774289","score":"84.27","image":"http:\/\/www.summitpost.com\/images\/small\/368598.jpg"},{"title":"Aletschhorn","latitude":"46.46670","longitude":"7.98330","elevation":"4193","activities":"Mountaineering","season":"","url":"http:\/\/www.summitpost.com\/aletschhorn\/150649","score":"91.67","image":"http:\/\/www.summitpost.com\/images\/small\/616423.JPG"},{"title":"Alex Lowe Peak","latitude":"45.42713","longitude":"-111.01444","elevation":"3057","activities":"Hiking, Scrambling, Skiing","season":"Spring, Summer, Fall, Winter","url":"http:\/\/www.summitpost.com\/alex-lowe-peak\/435971","score":"78.27","image":"http:\/\/www.summitpost.com\/images\/small\/435983.JPG"},{"title":"Alexander Mountain","latitude":"40.42741","longitude":"-105.25108","elevation":"2166","activities":"","season":"","url":"http:\/\/www.summitpost.com\/alexander-mountain\/680186","score":"83.1","image":"http:\/\/www.summitpost.com\/images\/small\/680639.JPG"},{"title":"Mount Sir Alexander","latitude":"53.93650","longitude":"-120.3859","elevation":"3275","activities":"Mountaineering","season":"Summer","url":"http:\/\/www.summitpost.com\/mount-sir-alexander\/441699","score":"94.24","image":"http:\/\/www.summitpost.com\/images\/small\/441707.jpg"},{"title":"Alexandra Peak","latitude":"49.73756","longitude":"-125.49176","elevation":"1982","activities":"Hiking, Mountaineering","season":"","url":"http:\/\/www.summitpost.com\/alexandra-peak\/642656","score":"82.48","image":"http:\/\/www.summitpost.com\/images\/small\/642657.JPG"},{"title":"Alf\u00e9o","latitude":"44.63190","longitude":"9.27530","elevation":"1651","activities":"Hiking","season":"","url":"http:\/\/www.summitpost.com\/alf-o\/280834","score":"73.06","image":"http:\/\/www.summitpost.com\/images\/small\/264651.JPG"},{"title":"Alger Alp (\"Little Baldy\")","latitude":"48.63431","longitude":"-122.33896","elevation":"401","activities":"Hiking","season":"Spring, Summer, Fall, Winter","url":"http:\/\/www.summitpost.com\/alger-alp-little-baldy\/705761","score":"84.27","image":"http:\/\/www.summitpost.com\/images\/small\/705767.JPG"},{"title":"Algonquin Peak","latitude":"44.14360","longitude":"-73.9869","elevation":"1559","activities":"","season":"","url":"http:\/\/www.summitpost.com\/algonquin-peak\/150395","score":"90.48","image":"http:\/\/www.summitpost.com\/images\/small\/2670.jpg"},{"title":"Mount Alice","latitude":"40.23950","longitude":"-105.6632","elevation":"4057","activities":"","season":"","url":"http:\/\/www.summitpost.com\/mount-alice\/151575","score":"91.45","image":"http:\/\/www.summitpost.com\/images\/small\/19729.jpg"},{"title":"Aliso Peak","latitude":"33.50918","longitude":"-117.7444","elevation":"190","activities":"","season":"","url":"http:\/\/www.summitpost.com\/aliso-peak\/773352","score":"80.49","image":"http:\/\/www.summitpost.com\/images\/small\/773769.jpg"},{"title":"Allalinhorn","latitude":"46.04450","longitude":"7.89330","elevation":"4027","activities":"Mountaineering","season":"","url":"http:\/\/www.summitpost.com\/allalinhorn\/150292","score":"95.36","image":"http:\/\/www.summitpost.com\/images\/small\/72848.jpg"},{"title":"Allen Crags","latitude":"54.46625","longitude":"-3.17943","elevation":"785","activities":"Hiking","season":"Spring, Summer, Fall, Winter","url":"http:\/\/www.summitpost.com\/allen-crags\/837430","score":"85.24","image":"http:\/\/www.summitpost.com\/images\/small\/837443.jpg"},{"title":"Allen Mountain","latitude":"44.07080","longitude":"-73.94","elevation":"1323","activities":"","season":"","url":"http:\/\/www.summitpost.com\/allen-mountain\/150710","score":"76.07","image":"http:\/\/www.summitpost.com\/images\/small\/89702.jpg"},{"title":"Allen Mountain","latitude":"48.75800","longitude":"-113.65756","elevation":"2858","activities":"Hiking, Scrambling","season":"Spring, Summer, Fall","url":"http:\/\/www.summitpost.com\/allen-mountain\/355298","score":"94.44","image":"http:\/\/www.summitpost.com\/images\/small\/566565.jpg"},{"title":"Allen Peak","latitude":"34.08050","longitude":"-116.9867","elevation":"1766","activities":"Hiking","season":"Spring, Summer, Fall, Winter","url":"http:\/\/www.summitpost.com\/allen-peak\/419313","score":"82.48","image":"http:\/\/www.summitpost.com\/images\/small\/416884.JPG"},{"title":"Beinn Alligin","latitude":"57.59194","longitude":"-5.5723","elevation":"986","activities":"Hiking, Mountaineering, Scrambling","season":"Spring, Summer, Fall, Winter","url":"http:\/\/www.summitpost.com\/beinn-alligin\/512937","score":"89.77","image":"http:\/\/www.summitpost.com\/images\/small\/512922.jpg"},{"title":"Allison Peak","latitude":"49.75045","longitude":"-114.64396","elevation":"2645","activities":"Scrambling","season":"Summer","url":"http:\/\/www.summitpost.com\/allison-peak\/750945","score":"83.69","image":"http:\/\/www.summitpost.com\/images\/small\/750936.JPG"},{"title":"Allison Ridge","latitude":"35.58073","longitude":"-82.24342","elevation":"872","activities":"Hiking","season":"Spring, Summer, Fall, Winter","url":"http:\/\/www.summitpost.com\/allison-ridge\/590816","score":"88.19","image":"http:\/\/www.summitpost.com\/images\/small\/590834.jpg"},{"title":"Mount Allison","latitude":"37.50000","longitude":"-121.87","elevation":"810","activities":"Hiking","season":"Spring, Summer, Fall, Winter","url":"http:\/\/www.summitpost.com\/mount-allison\/154840","score":"88.53","image":"http:\/\/www.summitpost.com\/images\/small\/131597.JPG"},{"title":"Allsop Peaks","latitude":"40.77320","longitude":"-110.68292","elevation":"3848","activities":"Hiking","season":"Summer","url":"http:\/\/www.summitpost.com\/allsop-peaks\/520181","score":"87.76","image":"http:\/\/www.summitpost.com\/images\/small\/520182.JPG"},{"title":"Alma Negra","latitude":"-32.1166","longitude":"-70.1667","elevation":"6110","activities":"","season":"","url":"http:\/\/www.summitpost.com\/alma-negra\/155192","score":"82.48","image":"http:\/\/www.summitpost.com\/images\/small\/142600.jpg"},{"title":"Almagellerhorn","latitude":"","longitude":"","elevation":"3327","activities":"Scrambling","season":"","url":"http:\/\/www.summitpost.com\/almagellerhorn\/742903","score":"78.86","image":"http:\/\/www.summitpost.com\/images\/small\/741217.jpg"},{"title":"UN 12,349, \"Almagre Mountain South\"","latitude":"38.77240","longitude":"-104.9933","elevation":"3764","activities":"Hiking","season":"Spring, Summer, Fall, Winter","url":"http:\/\/www.summitpost.com\/un-12-349-almagre-mountain-south\/589653","score":"81.84","image":"http:\/\/www.summitpost.com\/images\/small\/589627.JPG"},{"title":"Almagre Mountain","latitude":"38.79140","longitude":"-104.9933","elevation":"3769","activities":"","season":"","url":"http:\/\/www.summitpost.com\/almagre-mountain\/152782","score":"87.7","image":"http:\/\/www.summitpost.com\/images\/small\/59344.JPG"},{"title":"Almanzor","latitude":"40.24940","longitude":"-5.2985","elevation":"2592","activities":"","season":"","url":"http:\/\/www.summitpost.com\/almanzor\/150843","score":"94.24","image":"http:\/\/www.summitpost.com\/images\/small\/7421.jpg"},{"title":"Almendron","latitude":"36.82512","longitude":"-3.84011","elevation":"1514","activities":"Hiking, Scrambling","season":"Spring, Summer, Fall","url":"http:\/\/www.summitpost.com\/almendron\/412567","score":"88.19","image":"http:\/\/www.summitpost.com\/images\/small\/412589.jpg"},{"title":"Poncione d'Alnasca","latitude":"46.29215","longitude":"8.82339","elevation":"2301","activities":"Hiking, Mountaineering","season":"Spring, Summer, Fall","url":"http:\/\/www.summitpost.com\/poncione-d-alnasca\/514920","score":"85.36","image":"http:\/\/www.summitpost.com\/images\/small\/514387.jpg"},{"title":"Alpamayo","latitude":"-8.9333","longitude":"-77.7","elevation":"5947","activities":"","season":"","url":"http:\/\/www.summitpost.com\/alpamayo\/150466","score":"98.51","image":"http:\/\/www.summitpost.com\/images\/small\/37597.jpg"},{"title":"Mount Alpenglow","latitude":"60.87500","longitude":"-149.33372","elevation":"1468","activities":"Hiking, Mountaineering, Scrambling","season":"Summer, Fall","url":"http:\/\/www.summitpost.com\/mount-alpenglow\/734305","score":"87.31","image":"http:\/\/www.summitpost.com\/images\/small\/677291.JPG"},{"title":"Alpesisa","latitude":"44.48074","longitude":"9.04175","elevation":"989","activities":"","season":"","url":"http:\/\/www.summitpost.com\/alpesisa\/153913","score":"80.01","image":"http:\/\/www.summitpost.com\/images\/small\/205814.jpg"},{"title":"Alpha Mountain","latitude":"","longitude":"","elevation":"2305","activities":"","season":"","url":"http:\/\/www.summitpost.com\/alpha-mountain\/151367","score":"74.92","image":"http:\/\/www.summitpost.com\/images\/small\/110788.jpg"},{"title":"Alphubel","latitude":"46.06277","longitude":"7.86389","elevation":"4206","activities":"","season":"","url":"http:\/\/www.summitpost.com\/alphubel\/150215","score":"91.45","image":"http:\/\/www.summitpost.com\/images\/small\/4284.jpg"},{"title":"Alpine Baldy","latitude":"47.74222","longitude":"-121.24652","elevation":"1585","activities":"Hiking, Mountaineering","season":"Spring, Summer, Fall, Winter","url":"http:\/\/www.summitpost.com\/alpine-baldy\/597542","score":"83.1","image":"http:\/\/www.summitpost.com\/images\/small\/597529.JPG"},{"title":"Alpine Lookout","latitude":"47.81197","longitude":"-120.86448","elevation":"1901","activities":"Hiking","season":"Spring, Summer, Fall, Winter","url":"http:\/\/www.summitpost.com\/alpine-lookout\/667098","score":"79.78","image":"http:\/\/www.summitpost.com\/images\/small\/667095.JPG"},{"title":"Alpine Peak","latitude":"39.68620","longitude":"-105.6819","elevation":"3521","activities":"Hiking","season":"Spring, Summer, Fall, Winter","url":"http:\/\/www.summitpost.com\/alpine-peak\/847142","score":"75.09","image":"http:\/\/www.summitpost.com\/images\/small\/847137.JPG"},{"title":"Alpine Peak","latitude":"44.17170","longitude":"-115.0486","elevation":"3006","activities":"","season":"","url":"http:\/\/www.summitpost.com\/alpine-peak\/150401","score":"85.45","image":"http:\/\/www.summitpost.com\/images\/small\/787.jpg"},{"title":"Alpine Walk Peak","latitude":"39.38352","longitude":"-119.90723","elevation":"2755","activities":"Hiking","season":"Spring, Summer, Fall","url":"http:\/\/www.summitpost.com\/alpine-walk-peak\/626959","score":"81.84","image":"http:\/\/www.summitpost.com\/images\/small\/625038.JPG"},{"title":"Alps Mountain","latitude":"39.72726","longitude":"-105.59604","elevation":"3219","activities":"Hiking","season":"Spring, Summer, Fall","url":"http:\/\/www.summitpost.com\/alps-mountain\/655816","score":"72.3","image":"http:\/\/www.summitpost.com\/images\/small\/655817.JPG"},{"title":"Alpspitze","latitude":"47.42939","longitude":"11.04821","elevation":"2628","activities":"Hiking, Mountaineering, Scrambling, Via Ferrata, Skiing","season":"Spring, Summer, Fall, Winter","url":"http:\/\/www.summitpost.com\/alpspitze\/577392","score":"89","image":"http:\/\/www.summitpost.com\/images\/small\/401125.JPG"},{"title":"Alston Fin","latitude":"50.02100","longitude":"-126.237","elevation":"1707","activities":"Hiking, Mountaineering","season":"Spring, Summer, Fall","url":"http:\/\/www.summitpost.com\/alston-fin\/823496","score":"83.1","image":"http:\/\/www.summitpost.com\/images\/small\/823497.jpg"},{"title":"Alta Mountain","latitude":"47.44080","longitude":"-121.3308","elevation":"1875","activities":"","season":"","url":"http:\/\/www.summitpost.com\/alta-mountain\/151394","score":"82.31","image":"http:\/\/www.summitpost.com\/images\/small\/332992.JPG"},{"title":"Alta Peak","latitude":"36.59060","longitude":"-118.6611","elevation":"3415","activities":"","season":"","url":"http:\/\/www.summitpost.com\/alta-peak\/150655","score":"92.92","image":"http:\/\/www.summitpost.com\/images\/small\/12074.jpg"},{"title":"Altair Peak","latitude":"43.79260","longitude":"-114.0065","elevation":"3604","activities":"Hiking, Scrambling","season":"","url":"http:\/\/www.summitpost.com\/altair-peak\/228812","score":"90.13","image":"http:\/\/www.summitpost.com\/images\/small\/228823.jpg"},{"title":"Altavista de Gran Canaria","latitude":"28.01024","longitude":"-15.70908","elevation":"1376","activities":"","season":"","url":"http:\/\/www.summitpost.com\/altavista-de-gran-canaria\/152272","score":"80.49","image":"http:\/\/www.summitpost.com\/images\/small\/39612.jpg"},{"title":"Altels 3629m","latitude":"46.42934","longitude":"7.67738","elevation":"3629","activities":"Mountaineering, Skiing","season":"Spring, Summer, Fall","url":"http:\/\/www.summitpost.com\/altels-3629m\/362615","score":"88.61","image":"http:\/\/www.summitpost.com\/images\/small\/362618.jpg"},{"title":"Monte Altissimo di Nago","latitude":"45.81002","longitude":"10.88895","elevation":"2079","activities":"Hiking","season":"Spring, Summer, Fall, Winter","url":"http:\/\/www.summitpost.com\/monte-altissimo-di-nago\/596371","score":"85.87","image":"http:\/\/www.summitpost.com\/images\/small\/145693.jpg"},{"title":"Altmann","latitude":"","longitude":"","elevation":"2436","activities":"","season":"","url":"http:\/\/www.summitpost.com\/altmann\/150806","score":"83.93","image":"http:\/\/www.summitpost.com\/images\/small\/4985.JPG"},{"title":"Alto Diablo","latitude":"34.12690","longitude":"-116.8724","elevation":"3220","activities":"Hiking","season":"Spring, Summer, Fall, Winter","url":"http:\/\/www.summitpost.com\/alto-diablo\/349647","score":"82.33","image":"http:\/\/www.summitpost.com\/images\/small\/347895.JPG"},{"title":"Alto dos Ivos Peak","latitude":"-22.3943","longitude":"-44.80356","elevation":"2524","activities":"Hiking, Mountaineering, Scrambling","season":"Winter","url":"http:\/\/www.summitpost.com\/alto-dos-ivos-peak\/817836","score":"84.82","image":"http:\/\/www.summitpost.com\/images\/small\/817841.jpg"},{"title":"Altoona Hill","latitude":"46.27715","longitude":"-123.63027","elevation":"366","activities":"Hiking","season":"Spring, Summer, Fall, Winter","url":"http:\/\/www.summitpost.com\/altoona-hill\/677608","score":"79.78","image":"http:\/\/www.summitpost.com\/images\/small\/677573.JPG"},{"title":"Altos de Uteza","latitude":"28.12831","longitude":"-17.15519","elevation":"736","activities":"Hiking, Scrambling","season":"Spring, Summer, Fall, Winter","url":"http:\/\/www.summitpost.com\/altos-de-uteza\/373155","score":"82.48","image":"http:\/\/www.summitpost.com\/images\/small\/373158.jpg"},{"title":"Altschlo\u00dffelsen","latitude":"49.10350","longitude":"7.53730","elevation":"115","activities":"Hiking, Sport Climbing, Bouldering","season":"Spring, Summer, Fall, Winter","url":"http:\/\/www.summitpost.com\/altschlo-felsen\/177834","score":"80.87","image":"http:\/\/www.summitpost.com\/images\/small\/129331.jpg"},{"title":"Altyn Peak","latitude":"48.81330","longitude":"-113.6562","elevation":"2422","activities":"Hiking, Mountaineering, Scrambling","season":"Spring, Summer, Fall","url":"http:\/\/www.summitpost.com\/altyn-peak\/557113","score":"87.76","image":"http:\/\/www.summitpost.com\/images\/small\/557116.jpg"},{"title":"Alvand","latitude":"34.75656","longitude":"48.40405","elevation":"3575","activities":"Mountaineering","season":"Spring, Summer, Fall, Winter","url":"http:\/\/www.summitpost.com\/alvand\/153035","score":"79.9","image":"http:\/\/www.summitpost.com\/images\/small\/268374.JPG"},{"title":"Alvord Peak","latitude":"42.34722","longitude":"-118.70285","elevation":"2174","activities":"Hiking","season":"Spring, Summer, Fall, Winter","url":"http:\/\/www.summitpost.com\/alvord-peak\/266972","score":"91.14","image":"http:\/\/www.summitpost.com\/images\/small\/266973.JPG"},{"title":"Mount Alyeska","latitude":"60.95628","longitude":"-149.05804","elevation":"1201","activities":"","season":"","url":"http:\/\/www.summitpost.com\/mount-alyeska\/154877","score":"81.09","image":"http:\/\/www.summitpost.com\/images\/small\/133101.jpg"},{"title":"Ama Dablam","latitude":"27.86170","longitude":"86.86390","elevation":"6848","activities":"","season":"","url":"http:\/\/www.summitpost.com\/ama-dablam\/150234","score":"99.84","image":"http:\/\/www.summitpost.com\/images\/small\/45141.jpg"},{"title":"Amabilis Mountain","latitude":"47.29350","longitude":"-121.2616","elevation":"1393","activities":"Hiking","season":"Spring, Summer, Fall, Winter","url":"http:\/\/www.summitpost.com\/amabilis-mountain\/523392","score":"76.66","image":"http:\/\/www.summitpost.com\/images\/small\/523394.JPG"},{"title":"Amagat Peak","latitude":"54.89660","longitude":"-162.88107","elevation":"325","activities":"Hiking","season":"Spring, Summer, Fall, Winter","url":"http:\/\/www.summitpost.com\/amagat-peak\/737706","score":"75.81","image":"http:\/\/www.summitpost.com\/images\/small\/737680.JPG"},{"title":"Ambrym Volcano","latitude":"-16.26741","longitude":"168.12172","elevation":"1334","activities":"Hiking, Scrambling","season":"","url":"http:\/\/www.summitpost.com\/ambrym-volcano\/478679","score":"81.18","image":"http:\/\/www.summitpost.com\/images\/small\/466581.JPG"},{"title":"Ambush Peak","latitude":"42.84444","longitude":"-109.33791","elevation":"3658","activities":"Trad Climbing","season":"Summer","url":"http:\/\/www.summitpost.com\/ambush-peak\/737452","score":"73.03","image":"http:\/\/www.summitpost.com\/images\/small\/737453.JPG"},{"title":"Ameal de Pablo","latitude":"","longitude":"","elevation":"2489","activities":"Mountaineering, Ice Climbing, Scrambling","season":"Spring, Summer, Fall, Winter","url":"http:\/\/www.summitpost.com\/ameal-de-pablo\/197669","score":"84.55","image":"http:\/\/www.summitpost.com\/images\/small\/197670.jpg"},{"title":"Ameghino","latitude":"","longitude":"","elevation":"5860","activities":"","season":"","url":"http:\/\/www.summitpost.com\/ameghino\/150955","score":"88.19","image":"http:\/\/www.summitpost.com\/images\/small\/6681.jpg"},{"title":"American Border Peak","latitude":"48.99530","longitude":"-121.6649","elevation":"2437","activities":"","season":"","url":"http:\/\/www.summitpost.com\/american-border-peak\/154887","score":"92.66","image":"http:\/\/www.summitpost.com\/images\/small\/809106.JPG"},{"title":"American Flag Mountain","latitude":"38.93280","longitude":"-106.7181","elevation":"3875","activities":"Hiking","season":"Spring, Summer, Fall, Winter","url":"http:\/\/www.summitpost.com\/american-flag-mountain\/565108","score":"72.08","image":"http:\/\/www.summitpost.com\/images\/small\/655837.JPG"},{"title":"American Fork Twin Peaks","latitude":"40.55170","longitude":"-111.6561","elevation":"3502","activities":"","season":"","url":"http:\/\/www.summitpost.com\/american-fork-twin-peaks\/151755","score":"90.37","image":"http:\/\/www.summitpost.com\/images\/small\/56774.JPG"},{"title":"American Peak","latitude":"37.89950","longitude":"-107.5126","elevation":"4208","activities":"","season":"","url":"http:\/\/www.summitpost.com\/american-peak\/152106","score":"90.48","image":"http:\/\/www.summitpost.com\/images\/small\/34168.jpg"},{"title":"Ameringkogel","latitude":"47.07114","longitude":"14.80828","elevation":"2187","activities":"Hiking, Skiing","season":"Spring, Summer, Fall, Winter","url":"http:\/\/www.summitpost.com\/ameringkogel\/537999","score":"77.48","image":"http:\/\/www.summitpost.com\/images\/small\/538006.png"},{"title":"Amicalola Mountain","latitude":"34.59750","longitude":"-84.2306","elevation":"1031","activities":"Hiking","season":"Spring, Summer, Fall, Winter","url":"http:\/\/www.summitpost.com\/amicalola-mountain\/425848","score":"85.35","image":"http:\/\/www.summitpost.com\/images\/small\/425855.jpg"},{"title":"Amin Brakk (Great Tower)","latitude":"35.34986","longitude":"76.45729","elevation":"5800","activities":"Trad Climbing, Aid Climbing, Big Wall","season":"Summer","url":"http:\/\/www.summitpost.com\/amin-brakk-great-tower\/155073","score":"87.08","image":"http:\/\/www.summitpost.com\/images\/small\/138968.jpg"},{"title":"Amole Peak","latitude":"32.27202","longitude":"-111.15468","elevation":"1348","activities":"Mountaineering","season":"Spring, Fall, Winter","url":"http:\/\/www.summitpost.com\/amole-peak\/764930","score":"90.31","image":"http:\/\/www.summitpost.com\/images\/small\/764934.JPG"},{"title":"Amor","latitude":"39.57341","longitude":"-4.14828","elevation":"1380","activities":"Hiking, Mountaineering","season":"Spring, Summer, Fall, Winter","url":"http:\/\/www.summitpost.com\/amor\/786079","score":"75.81","image":"http:\/\/www.summitpost.com\/images\/small\/786080.JPG"},{"title":"Amos & Andrew Peaks","latitude":"48.92440","longitude":"-120.2326","elevation":"2530","activities":"","season":"","url":"http:\/\/www.summitpost.com\/amos-andrew-peaks\/155216","score":"84.82","image":"http:\/\/www.summitpost.com\/images\/small\/143667.jpg"},{"title":"Nevado Ampato","latitude":"-15.8217","longitude":"-71.8794","elevation":"6288","activities":"Mountaineering","season":"Spring, Fall, Winter","url":"http:\/\/www.summitpost.com\/nevado-ampato\/367425","score":"88.61","image":"http:\/\/www.summitpost.com\/images\/small\/367269.JPG"},{"title":"Ampersand","latitude":"44.23460","longitude":"-74.2027","elevation":"1022","activities":"","season":"","url":"http:\/\/www.summitpost.com\/ampersand\/152207","score":"90.77","image":"http:\/\/www.summitpost.com\/images\/small\/37504.jpg"},{"title":"Amphitheater Mountain","latitude":"48.97570","longitude":"-120.1912","elevation":"2548","activities":"","season":"","url":"http:\/\/www.summitpost.com\/amphitheater-mountain\/155206","score":"83.69","image":"http:\/\/www.summitpost.com\/images\/small\/143251.jpg"},{"title":"Amphitheater Mountain","latitude":"48.59970","longitude":"-113.4876","elevation":"2649","activities":"Hiking, Scrambling","season":"Spring, Summer, Fall","url":"http:\/\/www.summitpost.com\/amphitheater-mountain\/468192","score":"89.39","image":"http:\/\/www.summitpost.com\/images\/small\/468193.jpg"},{"title":"\"Amphitheatre Peak\" (Peak 11369)","latitude":"39.96840","longitude":"-107.2399","elevation":"3465","activities":"Hiking, Mountaineering, Scrambling","season":"Summer","url":"http:\/\/www.summitpost.com\/amphitheatre-peak-peak-11369\/326436","score":"83.1","image":"http:\/\/www.summitpost.com\/images\/small\/326439.jpg"},{"title":"An Caisteal","latitude":"56.34371","longitude":"-4.60988","elevation":"995","activities":"Hiking, Mountaineering, Scrambling, Skiing","season":"Spring, Summer, Fall, Winter","url":"http:\/\/www.summitpost.com\/an-caisteal\/212979","score":"83.69","image":"http:\/\/www.summitpost.com\/images\/small\/213114.jpg"},{"title":"An Gearanach","latitude":"56.75898","longitude":"-4.96659","elevation":"982","activities":"Hiking, Mountaineering, Ice Climbing, Scrambling, Skiing","season":"Spring, Summer, Fall, Winter","url":"http:\/\/www.summitpost.com\/an-gearanach\/396686","score":"95.01","image":"http:\/\/www.summitpost.com\/images\/small\/397871.JPG"},{"title":"An Sgurr","latitude":"","longitude":"","elevation":"393","activities":"Hiking","season":"Summer","url":"http:\/\/www.summitpost.com\/an-sgurr\/195034","score":"87.65","image":"http:\/\/www.summitpost.com\/images\/small\/195039.jpg"},{"title":"An Teallach","latitude":"57.81185","longitude":"-5.24734","elevation":"1062","activities":"Mountaineering","season":"","url":"http:\/\/www.summitpost.com\/an-teallach\/532402","score":"80.38","image":"http:\/\/www.summitpost.com\/images\/small\/529182.JPG"},{"title":"Anaconda Peak","latitude":"48.09581","longitude":"-121.63146","elevation":"1539","activities":"","season":"","url":"http:\/\/www.summitpost.com\/anaconda-peak\/800067","score":"79.04","image":"http:\/\/www.summitpost.com\/images\/small\/800060.JPG"},{"title":"Anayet","latitude":"42.77610","longitude":"-0.4593","elevation":"2575","activities":"Mountaineering, Big Wall, Mixed, Scrambling","season":"Spring, Summer, Fall","url":"http:\/\/www.summitpost.com\/anayet\/151774","score":"82.48","image":"http:\/\/www.summitpost.com\/images\/small\/25662.jpg"},{"title":"Anboto","latitude":"43.08800","longitude":"-2.5967","elevation":"1331","activities":"","season":"","url":"http:\/\/www.summitpost.com\/anboto\/153861","score":"85.36","image":"http:\/\/www.summitpost.com\/images\/small\/97336.jpg"},{"title":"Ancient Art","latitude":"38.72166","longitude":"-109.30402","elevation":"1661","activities":"Mountaineering, Trad Climbing, Sport Climbing, Aid Climbing, Big Wall","season":"Spring, Fall, Winter","url":"http:\/\/www.summitpost.com\/ancient-art\/509337","score":"96.11","image":"http:\/\/www.summitpost.com\/images\/small\/412657.jpg"},{"title":"Ancohuma (Jankhouma, Janq'uma)","latitude":"-15.51","longitude":"-68.36","elevation":"6427","activities":"Mountaineering, Ice Climbing, Mixed","season":"Summer","url":"http:\/\/www.summitpost.com\/ancohuma-jankhouma-janq-uma\/154573","score":"85.3","image":"http:\/\/www.summitpost.com\/images\/small\/122840.jpg"},{"title":"Andarai Maior","latitude":"-22.9394","longitude":"-43.2785","elevation":"860","activities":"","season":"","url":"http:\/\/www.summitpost.com\/andarai-maior\/155357","score":"72.08","image":"http:\/\/www.summitpost.com\/images\/small\/148280.JPG"},{"title":"Andersdalstind","latitude":"69.41766","longitude":"19.22453","elevation":"1221","activities":"Scrambling, Skiing","season":"Spring, Summer, Fall, Winter","url":"http:\/\/www.summitpost.com\/andersdalstind\/852531","score":"73.38","image":"http:\/\/www.summitpost.com\/images\/small\/852595.jpg"},{"title":"Mount Anderson (East Peak)","latitude":"47.72100","longitude":"-123.33","elevation":"2231","activities":"","season":"","url":"http:\/\/www.summitpost.com\/mount-anderson-east-peak\/152143","score":"77.48","image":"http:\/\/www.summitpost.com\/images\/small\/258732.jpg"},{"title":"Mount Anderson (West Peak)","latitude":"47.72320","longitude":"-123.3495","elevation":"2245","activities":"","season":"","url":"http:\/\/www.summitpost.com\/mount-anderson-west-peak\/153108","score":"89.39","image":"http:\/\/www.summitpost.com\/images\/small\/255365.jpg"},{"title":"Anderson Mountain","latitude":"48.64062","longitude":"-122.25701","elevation":"1025","activities":"Hiking","season":"Spring, Summer, Fall, Winter","url":"http:\/\/www.summitpost.com\/anderson-mountain\/569696","score":"79.04","image":"http:\/\/www.summitpost.com\/images\/small\/569602.JPG"},{"title":"Mount Anderson","latitude":"49.13481","longitude":"-114.07946","elevation":"2652","activities":"Hiking, Mountaineering, Trad Climbing","season":"Spring, Summer, Fall, Winter","url":"http:\/\/www.summitpost.com\/mount-anderson\/773164","score":"85.36","image":"http:\/\/www.summitpost.com\/images\/small\/419322.JPG"},{"title":"Anderson Peak","latitude":"39.25900","longitude":"-120.2971","elevation":"2647","activities":"","season":"","url":"http:\/\/www.summitpost.com\/anderson-peak\/153477","score":"84.27","image":"http:\/\/www.summitpost.com\/images\/small\/82810.jpg"},{"title":"Anderson Peak","latitude":"34.12440","longitude":"-116.8936","elevation":"3304","activities":"","season":"","url":"http:\/\/www.summitpost.com\/anderson-peak\/150755","score":"86.84","image":"http:\/\/www.summitpost.com\/images\/small\/17326.JPG"},{"title":"Anderson Peak (UN 13631)","latitude":"39.01220","longitude":"-106.63015","elevation":"4155","activities":"Mountaineering","season":"Summer","url":"http:\/\/www.summitpost.com\/anderson-peak-un-13631\/637880","score":"84.27","image":"http:\/\/www.summitpost.com\/images\/small\/637889.JPG"},{"title":"Andesite Peak","latitude":"39.35110","longitude":"-120.367","elevation":"2505","activities":"Hiking","season":"Spring, Summer, Fall, Winter","url":"http:\/\/www.summitpost.com\/andesite-peak\/219810","score":"84.27","image":"http:\/\/www.summitpost.com\/images\/small\/219815.jpg"},{"title":"Andrews Bald","latitude":"35.54200","longitude":"-83.493","elevation":"1804","activities":"Hiking","season":"","url":"http:\/\/www.summitpost.com\/andrews-bald\/207825","score":"83.69","image":"http:\/\/www.summitpost.com\/images\/small\/207827.JPG"},{"title":"Mount Andromache","latitude":"51.48673","longitude":"-116.15982","elevation":"2996","activities":"","season":"","url":"http:\/\/www.summitpost.com\/mount-andromache\/151869","score":"79.78","image":"http:\/\/www.summitpost.com\/images\/small\/30395.jpg"},{"title":"Mount Andromeda","latitude":"52.17630","longitude":"-117.2347","elevation":"3450","activities":"Mountaineering, Ice Climbing, Mixed","season":"","url":"http:\/\/www.summitpost.com\/mount-andromeda\/150407","score":"88.19","image":"http:\/\/www.summitpost.com\/images\/small\/10093.jpg"},{"title":"Andy Nelson Peak","latitude":"37.36143","longitude":"-112.82272","elevation":"3056","activities":"Hiking","season":"","url":"http:\/\/www.summitpost.com\/andy-nelson-peak\/347713","score":"75.22","image":"http:\/\/www.summitpost.com\/images\/small\/347908.jpg"},{"title":"Anebos","latitude":"49.19264","longitude":"7.98205","elevation":"482","activities":"Sport Climbing, Toprope","season":"Spring, Summer, Fall","url":"http:\/\/www.summitpost.com\/anebos\/378930","score":"85.1","image":"http:\/\/www.summitpost.com\/images\/small\/378953.jpg"},{"title":"An\u00e9ou","latitude":"42.80186","longitude":"-0.44928","elevation":"2364","activities":"Hiking, Mountaineering, Skiing","season":"Spring, Summer, Fall, Winter","url":"http:\/\/www.summitpost.com\/an-ou\/813342","score":"76.95","image":"http:\/\/www.summitpost.com\/images\/small\/812671.JPG"},{"title":"Aneroid Mountain","latitude":"45.20330","longitude":"-117.1736","elevation":"2957","activities":"","season":"","url":"http:\/\/www.summitpost.com\/aneroid-mountain\/150916","score":"91.14","image":"http:\/\/www.summitpost.com\/images\/small\/16187.jpg"},{"title":"Aneto","latitude":"42.63110","longitude":"0.66020","elevation":"3404","activities":"","season":"","url":"http:\/\/www.summitpost.com\/aneto\/150964","score":"94.82","image":"http:\/\/www.summitpost.com\/images\/small\/20058.jpg"},{"title":"Angarillones","latitude":"42.22400","longitude":"-1.42037","elevation":"491","activities":"Hiking, Mountaineering","season":"Spring, Summer, Fall, Winter","url":"http:\/\/www.summitpost.com\/angarillones\/766693","score":"79.04","image":"http:\/\/www.summitpost.com\/images\/small\/765932.JPG"},{"title":"Angel Food Wall, 5.6-5.11a","latitude":"36.17000","longitude":"-115.49083","elevation":"","activities":"Trad Climbing","season":"Spring, Summer, Fall, Winter","url":"http:\/\/www.summitpost.com\/angel-food-wall-5-6-5-11a\/472809","score":"86.85","image":"http:\/\/www.summitpost.com\/images\/small\/607379.jpg"},{"title":"Angel Wing","latitude":"48.75750","longitude":"-113.7106","elevation":"2265","activities":"","season":"","url":"http:\/\/www.summitpost.com\/angel-wing\/155122","score":"85.6","image":"http:\/\/www.summitpost.com\/images\/small\/140222.JPG"},{"title":"Angel's Rest","latitude":"45.57488","longitude":"-122.15207","elevation":"481","activities":"Hiking","season":"Spring, Summer, Fall, Winter","url":"http:\/\/www.summitpost.com\/angel-s-rest\/350350","score":"77.48","image":"http:\/\/www.summitpost.com\/images\/small\/350356.jpg"},{"title":"Mount Angeles","latitude":"47.99540","longitude":"-123.4672","elevation":"1967","activities":"","season":"","url":"http:\/\/www.summitpost.com\/mount-angeles\/151878","score":"87.65","image":"http:\/\/www.summitpost.com\/images\/small\/31618.JPG"},{"title":"Angell Pk\/Lees Pk\/Lakes L.O.","latitude":"44.94170","longitude":"-118.2298","elevation":"2635","activities":"","season":"","url":"http:\/\/www.summitpost.com\/angell-pk-lees-pk-lakes-l-o\/155123","score":"84.82","image":"http:\/\/www.summitpost.com\/images\/small\/140239.jpg"},{"title":"Angels Landing","latitude":"37.26940","longitude":"-112.9486","elevation":"1763","activities":"","season":"","url":"http:\/\/www.summitpost.com\/angels-landing\/150599","score":"96.41","image":"http:\/\/www.summitpost.com\/images\/small\/2234.jpg"},{"title":"Angels Perch","latitude":"43.79720","longitude":"-114.0672","elevation":"3562","activities":"","season":"","url":"http:\/\/www.summitpost.com\/angels-perch\/154735","score":"86.85","image":"http:\/\/www.summitpost.com\/images\/small\/128190.jpg"},{"title":"Mount Angelus","latitude":"-41.90637","longitude":"172.74976","elevation":"2075","activities":"Hiking, Mountaineering, Scrambling","season":"Spring, Summer, Fall, Winter","url":"http:\/\/www.summitpost.com\/mount-angelus\/200020","score":"87.76","image":"http:\/\/www.summitpost.com\/images\/small\/200021.jpg"},{"title":"Angemar II","latitude":"35.77382","longitude":"52.19167","elevation":"4020","activities":"Mountaineering","season":"Summer","url":"http:\/\/www.summitpost.com\/angemar-ii\/570134","score":"84.82","image":"http:\/\/www.summitpost.com\/images\/small\/570192.JPG"},{"title":"Angemar I","latitude":"35.76797","longitude":"52.21277","elevation":"4047","activities":"Mountaineering","season":"Summer","url":"http:\/\/www.summitpost.com\/angemar-i\/574525","score":"84.27","image":"http:\/\/www.summitpost.com\/images\/small\/574592.JPG"},{"title":"Angerer Icegarden","latitude":"46.94651","longitude":"11.93802","elevation":"1635","activities":"Toprope, Ice Climbing, Mixed","season":"Winter","url":"http:\/\/www.summitpost.com\/angerer-icegarden\/377889","score":"84.27","image":"http:\/\/www.summitpost.com\/images\/small\/377890.JPG"},{"title":"Angle Mountain","latitude":"43.82240","longitude":"-110.14886","elevation":"3237","activities":"Hiking, Scrambling","season":"Summer, Fall","url":"http:\/\/www.summitpost.com\/angle-mountain\/748882","score":"88.19","image":"http:\/\/www.summitpost.com\/images\/small\/748554.JPG"},{"title":"Angletarn Pikes","latitude":"54.52539","longitude":"-2.90636","elevation":"567","activities":"Hiking","season":"Spring, Summer, Fall, Winter","url":"http:\/\/www.summitpost.com\/angletarn-pikes\/837085","score":"74.62","image":"http:\/\/www.summitpost.com\/images\/small\/837080.JPG"},{"title":"Angora Mountain","latitude":"36.26444","longitude":"-118.44611","elevation":"3108","activities":"","season":"Spring, Summer, Fall","url":"http:\/\/www.summitpost.com\/angora-mountain\/625641","score":"90.48","image":"http:\/\/www.summitpost.com\/images\/small\/625631.JPG"},{"title":"Angour","latitude":"","longitude":"","elevation":"3616","activities":"","season":"","url":"http:\/\/www.summitpost.com\/angour\/153729","score":"75.86","image":"http:\/\/www.summitpost.com\/images\/small\/104809.JPG"},{"title":"Angour North Face","latitude":"31.17536","longitude":"-7.82545","elevation":"3616","activities":"Mountaineering","season":"Winter","url":"http:\/\/www.summitpost.com\/angour-north-face\/374437","score":"73.8","image":"http:\/\/www.summitpost.com\/images\/small\/374439.jpg"},{"title":"Anhangava Hill","latitude":"-25","longitude":"-49","elevation":"1450","activities":"Hiking, Mountaineering, Sport Climbing, Toprope, Bouldering, Scrambling","season":"Fall, Winter","url":"http:\/\/www.summitpost.com\/anhangava-hill\/727752","score":"81.18","image":"http:\/\/www.summitpost.com\/images\/small\/847204.jpg"},{"title":"Anica Kuk","latitude":"44.34040","longitude":"15.47480","elevation":"","activities":"","season":"Spring, Summer, Fall","url":"http:\/\/www.summitpost.com\/anica-kuk\/159830","score":"79.78","image":"http:\/\/www.summitpost.com\/images\/small\/64264.jpg"},{"title":"Ani\u010da kuk Stup","latitude":"44.34040","longitude":"15.47480","elevation":"350","activities":"Trad Climbing, Sport Climbing","season":"Spring, Summer, Fall","url":"http:\/\/www.summitpost.com\/ani-a-kuk-stup\/852616","score":"84.27","image":"http:\/\/www.summitpost.com\/images\/small\/852621.jpg"},{"title":"Anie","latitude":"42.95070","longitude":"-0.7231","elevation":"2507","activities":"","season":"","url":"http:\/\/www.summitpost.com\/anie\/151603","score":"78.84","image":"http:\/\/www.summitpost.com\/images\/small\/733823.jpg"},{"title":"Anielarra \/ A\u00f1elarra","latitude":"42.94010","longitude":"-0.72977","elevation":"2357","activities":"Hiking, Mountaineering","season":"Spring, Summer, Fall, Winter","url":"http:\/\/www.summitpost.com\/anielarra-a-elarra\/733783","score":"75.81","image":"http:\/\/www.summitpost.com\/images\/small\/733784.jpg"},{"title":"Animal Cracker, 5.6-5.11d","latitude":"42.08716","longitude":"-113.72298","elevation":"1951","activities":"Trad Climbing, Sport Climbing","season":"Spring, Summer, Fall","url":"http:\/\/www.summitpost.com\/animal-cracker-5-6-5-11d\/800618","score":"77.48","image":"http:\/\/www.summitpost.com\/images\/small\/800617.JPG"},{"title":"Animas Mountain","latitude":"37.64310","longitude":"-107.6291","elevation":"4202","activities":"Hiking, Mountaineering, Trad Climbing, Toprope, Ice Climbing, Mixed, Scrambling","season":"Summer","url":"http:\/\/www.summitpost.com\/animas-mountain\/333279","score":"86.37","image":"http:\/\/www.summitpost.com\/images\/small\/332748.JPG"},{"title":"A\u00f1isclo \/ Soum de Ramond","latitude":"42.66960","longitude":"0.04320","elevation":"3254","activities":"","season":"","url":"http:\/\/www.summitpost.com\/a-isclo-soum-de-ramond\/154763","score":"81.18","image":"http:\/\/www.summitpost.com\/images\/small\/129056.jpg"},{"title":"Ankogel","latitude":"47.05050","longitude":"13.24950","elevation":"3246","activities":"","season":"","url":"http:\/\/www.summitpost.com\/ankogel\/151766","score":"89.28","image":"http:\/\/www.summitpost.com\/images\/small\/34284.jpg"},{"title":"Mount Ann","latitude":"48.81650","longitude":"-121.665","elevation":"1780","activities":"","season":"","url":"http:\/\/www.summitpost.com\/mount-ann\/153759","score":"86.85","image":"http:\/\/www.summitpost.com\/images\/small\/92901.jpg"},{"title":"Annapolis Rocks","latitude":"39.54979","longitude":"-77.6033","elevation":"518","activities":"Hiking","season":"Spring, Fall","url":"http:\/\/www.summitpost.com\/annapolis-rocks\/307793","score":"83.1","image":"http:\/\/www.summitpost.com\/images\/small\/300173.JPG"},{"title":"Annapurna I","latitude":"28.56670","longitude":"83.83330","elevation":"8091","activities":"","season":"","url":"http:\/\/www.summitpost.com\/annapurna-i\/150258","score":"92.84","image":"http:\/\/www.summitpost.com\/images\/small\/73559.jpg"},{"title":"Mount Annie","latitude":"48.66136","longitude":"-119.05385","elevation":"1846","activities":"Hiking","season":"Spring, Summer, Fall, Winter","url":"http:\/\/www.summitpost.com\/mount-annie\/740279","score":"84.27","image":"http:\/\/www.summitpost.com\/images\/small\/423375.JPG"},{"title":"Mount Ansel Adams","latitude":"37.69798","longitude":"-119.2817","elevation":"3584","activities":"Hiking, Mountaineering, Scrambling","season":"Summer, Fall","url":"http:\/\/www.summitpost.com\/mount-ansel-adams\/831970","score":"86.26","image":"http:\/\/www.summitpost.com\/images\/small\/831972.jpg"},{"title":"Ant Hill","latitude":"37.22675","longitude":"-112.92135","elevation":"2024","activities":"Scrambling","season":"Spring, Summer, Fall, Winter","url":"http:\/\/www.summitpost.com\/ant-hill\/846342","score":"85.09","image":"http:\/\/www.summitpost.com\/images\/small\/846339.JPG"},{"title":"Antares Peak","latitude":"43.64930","longitude":"-113.905","elevation":"3246","activities":"Hiking, Mountaineering","season":"Summer, Fall","url":"http:\/\/www.summitpost.com\/antares-peak\/626079","score":"87.76","image":"http:\/\/www.summitpost.com\/images\/small\/626082.JPG"},{"title":"Anteater, 5.7R-5.11b","latitude":"42.09653","longitude":"-113.69728","elevation":"1951","activities":"Trad Climbing, Sport Climbing","season":"Spring, Summer, Fall","url":"http:\/\/www.summitpost.com\/anteater-5-7r-5-11b\/800936","score":"77.48","image":"http:\/\/www.summitpost.com\/images\/small\/800935.JPG"},{"title":"Antelao, Monte","latitude":"46.45229","longitude":"12.26143","elevation":"3263","activities":"","season":"","url":"http:\/\/www.summitpost.com\/antelao-monte\/203814","score":"94.18","image":"http:\/\/www.summitpost.com\/images\/small\/46251.jpg"},{"title":"Morro da Antena","latitude":"","longitude":"","elevation":"2585","activities":"Hiking, Mountaineering","season":"Winter","url":"http:\/\/www.summitpost.com\/morro-da-antena\/655199","score":"79.78","image":"http:\/\/www.summitpost.com\/images\/small\/794262.JPG"},{"title":"Antero Benchmark","latitude":"38.88470","longitude":"-105.9767","elevation":"3209","activities":"Hiking","season":"Spring, Summer, Fall, Winter","url":"http:\/\/www.summitpost.com\/antero-benchmark\/830319","score":"84.27","image":"http:\/\/www.summitpost.com\/images\/small\/830320.JPG"},{"title":"Mount Antero","latitude":"38.67420","longitude":"-106.2464","elevation":"4351","activities":"","season":"","url":"http:\/\/www.summitpost.com\/mount-antero\/150372","score":"94.07","image":"http:\/\/www.summitpost.com\/images\/small\/390092.jpg"},{"title":"Anthony's Nose","latitude":"41.31908","longitude":"-73.9761","elevation":"274","activities":"Hiking","season":"Spring, Summer, Fall, Winter","url":"http:\/\/www.summitpost.com\/anthony-s-nose\/305060","score":"73.53","image":"http:\/\/www.summitpost.com\/images\/small\/305063.jpg"},{"title":"Anthonys Nose","latitude":"31.95940","longitude":"-106.4981","elevation":"2111","activities":"Hiking","season":"Spring, Summer, Fall, Winter","url":"http:\/\/www.summitpost.com\/anthonys-nose\/275630","score":"81.17","image":"http:\/\/www.summitpost.com\/images\/small\/275624.JPG"},{"title":"Anthracite Mesa","latitude":"38.96184","longitude":"-107.0455","elevation":"3435","activities":"Hiking","season":"Spring, Summer, Fall, Winter","url":"http:\/\/www.summitpost.com\/anthracite-mesa\/558276","score":"71.06","image":"http:\/\/www.summitpost.com\/images\/small\/558278.JPG"},{"title":"Anthracite Range\/Ohio Peak","latitude":"38.81440","longitude":"-107.145","elevation":"3775","activities":"","season":"","url":"http:\/\/www.summitpost.com\/anthracite-range-ohio-peak\/153635","score":"88.61","image":"http:\/\/www.summitpost.com\/images\/small\/87672.JPG"},{"title":"Antimony Peak (San Emigdio Mtns.)","latitude":"34.87700","longitude":"-119.1122","elevation":"2087","activities":"Hiking","season":"Spring, Summer, Fall, Winter","url":"http:\/\/www.summitpost.com\/antimony-peak-san-emigdio-mtns\/400904","score":"83.69","image":"http:\/\/www.summitpost.com\/images\/small\/399807.JPG"},{"title":"Antisana","latitude":"","longitude":"","elevation":"5758","activities":"Mountaineering, Ice Climbing","season":"Summer, Winter","url":"http:\/\/www.summitpost.com\/antisana\/153309","score":"87.88","image":"http:\/\/www.summitpost.com\/images\/small\/85502.JPG"},{"title":"Antler Butte","latitude":"43.86684","longitude":"-102.27373","elevation":"922","activities":"","season":"Spring, Summer, Fall, Winter","url":"http:\/\/www.summitpost.com\/antler-butte\/640493","score":"88.19","image":"http:\/\/www.summitpost.com\/images\/small\/640309.JPG"},{"title":"Antler Peak","latitude":"46.91990","longitude":"-121.6322","elevation":"2139","activities":"Hiking, Scrambling","season":"Summer, Fall","url":"http:\/\/www.summitpost.com\/antler-peak\/736834","score":"81.18","image":"http:\/\/www.summitpost.com\/images\/small\/736861.JPG"},{"title":"Antoinette Peak","latitude":"43.39438","longitude":"-110.40959","elevation":"3477","activities":"Mountaineering","season":"Summer","url":"http:\/\/www.summitpost.com\/antoinette-peak\/465474","score":"88.92","image":"http:\/\/www.summitpost.com\/images\/small\/409553.jpg"},{"title":"Antola","latitude":"44.57440","longitude":"9.14980","elevation":"1597","activities":"","season":"","url":"http:\/\/www.summitpost.com\/antola\/154569","score":"75.81","image":"http:\/\/www.summitpost.com\/images\/small\/193839.jpg"},{"title":"Antone Mountain","latitude":"43.25410","longitude":"-73.191","elevation":"792","activities":"Hiking","season":"","url":"http:\/\/www.summitpost.com\/antone-mountain\/622955","score":"72.08","image":"http:\/\/www.summitpost.com\/images\/small\/622956.jpg"},{"title":"Antora Peak","latitude":"38.32500","longitude":"-106.2181","elevation":"4044","activities":"","season":"","url":"http:\/\/www.summitpost.com\/antora-peak\/154629","score":"83.1","image":"http:\/\/www.summitpost.com\/images\/small\/171657.jpeg"},{"title":"Antrim Peak","latitude":"50.60824","longitude":"-116.48169","elevation":"2919","activities":"Mountaineering, Scrambling","season":"Spring, Summer, Fall, Winter","url":"http:\/\/www.summitpost.com\/antrim-peak\/749866","score":"71.06","image":"http:\/\/www.summitpost.com\/images\/small\/746382.JPG"},{"title":"Anvil Mountain","latitude":"37.83777","longitude":"-107.70728","elevation":"3818","activities":"Hiking, Mountaineering, Scrambling, Skiing","season":"Spring, Summer, Fall, Winter","url":"http:\/\/www.summitpost.com\/anvil-mountain\/742974","score":"85.87","image":"http:\/\/www.summitpost.com\/images\/small\/742216.jpg"},{"title":"Anzotiello","latitude":"42.87760","longitude":"-0.749","elevation":"2211","activities":"","season":"","url":"http:\/\/www.summitpost.com\/anzotiello\/153538","score":"80.49","image":"http:\/\/www.summitpost.com\/images\/small\/84795.jpg"},{"title":"Aonach Eagach","latitude":"56.68100","longitude":"-5.002","elevation":"967","activities":"","season":"","url":"http:\/\/www.summitpost.com\/aonach-eagach\/151500","score":"83.48","image":"http:\/\/www.summitpost.com\/images\/small\/41416.jpg"},{"title":"Aorai (Tahiti)","latitude":"-17.6187","longitude":"-149.50101","elevation":"2066","activities":"","season":"","url":"http:\/\/www.summitpost.com\/aorai-tahiti\/155135","score":"87.76","image":"http:\/\/www.summitpost.com\/images\/small\/140793.JPG"},{"title":"Aoraki - Cook","latitude":"-43.6","longitude":"170.14999","elevation":"3754","activities":"","season":"","url":"http:\/\/www.summitpost.com\/aoraki-cook\/150306","score":"98.41","image":"http:\/\/www.summitpost.com\/images\/small\/12931.jpg"},{"title":"\u25b2Punta  Aouillette","latitude":"45.74360","longitude":"7.14330","elevation":"2616","activities":"Mountaineering","season":"","url":"http:\/\/www.summitpost.com\/font-color-blue-font-punta-aouillette\/153804","score":"89.39","image":"http:\/\/www.summitpost.com\/images\/small\/97056.jpg"},{"title":"Apache Peak","latitude":"33.71870","longitude":"-116.626","elevation":"2306","activities":"Hiking","season":"Spring, Summer, Fall, Winter","url":"http:\/\/www.summitpost.com\/apache-peak\/253966","score":"87.31","image":"http:\/\/www.summitpost.com\/images\/small\/254135.jpg"},{"title":"Apache Peak","latitude":"40.05800","longitude":"-105.651","elevation":"4097","activities":"","season":"","url":"http:\/\/www.summitpost.com\/apache-peak\/151126","score":"89.39","image":"http:\/\/www.summitpost.com\/images\/small\/63824.JPG"},{"title":"Apache Peak (Whetstone Mtns)","latitude":"31.82500","longitude":"-110.4296","elevation":"2350","activities":"Hiking, Scrambling","season":"Spring, Fall, Winter","url":"http:\/\/www.summitpost.com\/apache-peak-whetstone-mtns\/763877","score":"80.02","image":"http:\/\/www.summitpost.com\/images\/small\/763878.jpg"},